[{"arrid": "21976", "arrversion": "1338489-1338491", "arrcreated": "2014-12-29T00:00:00+01:00", "arrchanged": "2021-10-15T11:15:28+02:00", "arrname": "S\u00e8vres - Babylone", "arrtype": "metro", "arrxepsg2154": 650549, "arryepsg2154": 6861421, "arrtown": "Paris 6e", "arrpostalregion": "75106", "arraccessibility": "false", "arraudiblesignals": "true", "arrvisualsigns": "true", "arrfarezone": "1", "zdaid": "44828", "arrgeopoint": {"lon": 2.326104689925573, "lat": 48.850931505974366}},{"arrid": "22212", "arrversion": "1337890-1337892", "arrcreated": "2014-12-29T00:00:00+01:00", "arrchanged": "2021-10-14T17:09:28+02:00", "arrname": "Cr\u00e9teil - Universit\u00e9", "arrtype": "metro", "arrxepsg2154": 659632, "arryepsg2154": 6854566, "arrtown": "Cr\u00e9teil", "arrpostalregion": "94028", "arraccessibility": "false", "arraudiblesignals": "true", "arrvisualsigns": "true", "arrfarezone": "2", "zdaid": "42779", "arrgeopoint": {"lon": 2.4505291963482927, "lat": 48.78991568599312}},{"arrid": "463157", "arrversion": "1332127-1332128", "arrcreated": "2019-01-29T00:00:00+01:00", "arrchanged": "2021-10-04T14:53:14+02:00", "arrname": "Censier - Daubenton", "arrtype": "metro", "arrxepsg2154": 652402, "arryepsg2154": 6860219, "arrtown": "Paris 5e", "arrpostalregion": "75105", "arraccessibility": "false", "arraudiblesignals": "true", "arrvisualsigns": "true", "arrfarezone": "1", "zdaid": "42461", "arrgeopoint": {"lon": 2.351495277596339, "lat": 48.840266008187484}},{"arrid": "463141", "arrversion": "1332120-1034862", "arrcreated": "2019-01-29T00:00:00+01:00", "arrchanged": "2021-10-04T14:49:34+02:00", "arrname": "Cardinal Lemoine", "arrtype": "metro", "arrxepsg2154": 652396, "arryepsg2154": 6860935, "arrtown": "Paris 5e", "arrpostalregion": "75105", "arraccessibility": "false", "arraudiblesignals": "true", "arrvisualsigns": "true", "arrfarezone": "1", "zdaid": "42435", "arrgeopoint": {"lon": 2.351328001673176, "lat": 48.84670003524942}},{"arrid": "21984", "arrversion": "1332119-1034862", "arrcreated": "2014-12-29T00:00:00+01:00", "arrchanged": "2021-10-04T14:49:27+02:00", "arrname": "Cardinal Lemoine", "arrtype": "metro", "arrxepsg2154": 652396, "arryepsg2154": 6860935, "arrtown": "Paris 5e", "arrpostalregion": "75105", "arraccessibility": "false", "arraudiblesignals": "true", "arrvisualsigns": "true", "arrfarezone": "1", "zdaid": "42435", "arrgeopoint": {"lon": 2.351328001673176, "lat": 48.84670003524942}},{"arrid": "24683", "arrversion": "1332105-1034811", "arrcreated": "2014-12-29T00:00:00+01:00", "arrchanged": "2021-10-04T14:46:45+02:00", "arrname": "Buttes Chaumont", "arrtype": "metro", "arrxepsg2154": 654643, "arryepsg2154": 6864453, "arrtown": "Paris 19e", "arrpostalregion": "75119", "arraccessibility": "false", "arraudiblesignals": "true", "arrvisualsigns": "true", "arrfarezone": "1", "zdaid": "45609", "arrgeopoint": {"lon": 2.3815698420880076, "lat": 48.87849908838495}},{"arrid": "462993", "arrversion": "1328442-44799", "arrcreated": "2019-01-28T00:00:00+01:00", "arrchanged": "2021-09-13T15:44:25+02:00", "arrname": "Saint-Germain-des-Pr\u00e9s", "arrtype": "metro", "arrxepsg2154": 651130, "arryepsg2154": 6861721, "arrtown": "Paris 6e", "arrpostalregion": "75106", "arraccessibility": "false", "arraudiblesignals": "true", "arrvisualsigns": "true", "arrfarezone": "1", "zdaid": "44799", "arrgeopoint": {"lon": 2.3339874291342255, "lat": 48.85367371341955}},{"arrid": "22181", "arrversion": "1328278-1035221", "arrcreated": "2014-12-29T00:00:00+01:00", "arrchanged": "2021-09-13T13:57:08+02:00", "arrname": "Daumesnil", "arrtype": "metro", "arrxepsg2154": 655679, "arryepsg2154": 6860101, "arrtown": "Paris 12e", "arrpostalregion": "75112", "arraccessibility": "false", "arraudiblesignals": "true", "arrvisualsigns": "true", "arrfarezone": "1", "zdaid": "45229", "arrgeopoint": {"lon": 2.3961486284893705, "lat": 48.839434008039476}},{"arrid": "463005", "arrversion": "1322614-1034585", "arrcreated": "2019-01-28T00:00:00+01:00", "arrchanged": "2021-08-25T18:01:46+02:00", "arrname": "Bir-Hakeim", "arrtype": "metro", "arrxepsg2154": 647858, "arryepsg2154": 6861777, "arrtown": "Paris 15e", "arrpostalregion": "75115", "arraccessibility": "false", "arraudiblesignals": "true", "arrvisualsigns": "true", "arrfarezone": "1", "zdaid": "45340", "arrgeopoint": {"lon": 2.2894007376345993, "lat": 48.853925368362304}},{"arrid": "463324", "arrversion": "1309073-1309074", "arrcreated": "2019-01-29T00:00:00+01:00", "arrchanged": "2021-07-29T18:02:01+02:00", "arrname": "Villejuif Paul Vaillant-Couturier", "arrtype": "metro", "arrxepsg2154": 653589, "arryepsg2154": 6855322, "arrtown": "Villejuif", "arrpostalregion": "94076", "arraccessibility": "false", "arraudiblesignals": "true", "arrvisualsigns": "true", "arrfarezone": "2", "zdaid": "58471", "arrgeopoint": {"lon": 2.368195583812103, "lat": 48.79630822121261}},{"arrid": "22394", "arrversion": "1306810-1306809", "arrcreated": "2014-12-29T00:00:00+01:00", "arrchanged": "2021-07-26T14:21:17+02:00", "arrname": "Aubervilliers-Pantin Quatre Chemins", "arrtype": "metro", "arrxepsg2154": 655438, "arryepsg2154": 6867260, "arrtown": "Aubervilliers", "arrpostalregion": "93001", "arraccessibility": "false", "arraudiblesignals": "true", "arrvisualsigns": "true", "arrfarezone": "2", "zdaid": "46492", "arrgeopoint": {"lon": 2.392114382497849, "lat": 48.903796990376065}},{"arrid": "22233", "arrversion": "1306790-1026700", "arrcreated": "2014-12-29T00:00:00+01:00", "arrchanged": "2021-07-26T11:41:18+02:00", "arrname": "Asni\u00e8res - Gennevilliers Les Courtilles", "arrtype": "metro", "arrxepsg2154": 647567, "arryepsg2154": 6870307, "arrtown": "Gennevilliers", "arrpostalregion": "92036", "arraccessibility": "false", "arraudiblesignals": "true", "arrvisualsigns": "true", "arrfarezone": "2", "zdaid": "42231", "arrgeopoint": {"lon": 2.284372100658843, "lat": 48.93060364138688}},{"arrid": "463119", "arrversion": "1306134-1026746", "arrcreated": "2019-01-29T00:00:00+01:00", "arrchanged": "2021-07-22T17:42:32+02:00", "arrname": "Anatole France", "arrtype": "metro", "arrxepsg2154": 647560, "arryepsg2154": 6866040, "arrtown": "Levallois-Perret", "arrpostalregion": "92044", "arraccessibility": "false", "arraudiblesignals": "true", "arrvisualsigns": "true", "arrfarezone": "2", "zdaid": "42195", "arrgeopoint": {"lon": 2.2848122193525104, "lat": 48.89223258538292}},{"arrid": "463117", "arrversion": "1305878-1026715", "arrcreated": "2019-01-29T00:00:00+01:00", "arrchanged": "2021-07-21T17:43:07+02:00", "arrname": "Alexandre Dumas", "arrtype": "metro", "arrxepsg2154": 655587, "arryepsg2154": 6861971, "arrtown": "Paris 20e", "arrpostalregion": "75120", "arraccessibility": "false", "arraudiblesignals": "true", "arrvisualsigns": "true", "arrfarezone": "1", "zdaid": "45196", "arrgeopoint": {"lon": 2.3947127337554783, "lat": 48.85624467842371}},{"arrid": "463206", "arrversion": "1273502-43656", "arrcreated": "2019-01-29T00:00:00+01:00", "arrchanged": "2021-05-26T11:23:04+02:00", "arrname": "Le Peletier", "arrtype": "metro", "arrxepsg2154": 651606, "arryepsg2154": 6864072, "arrtown": "Paris 9e", "arrpostalregion": "75109", "arraccessibility": "false", "arraudiblesignals": "true", "arrvisualsigns": "true", "arrfarezone": "1", "zdaid": "43656", "arrgeopoint": {"lon": 2.3402064594563368, "lat": 48.87485179365708}},{"arrid": "22005", "arrversion": "1021579-44227", "arrcreated": "2014-12-29T00:00:00+01:00", "arrchanged": "2021-05-04T17:56:37+02:00", "arrname": "Ourcq", "arrtype": "metro", "arrxepsg2154": 655025, "arryepsg2154": 6865412, "arrtown": "Paris 19e", "arrpostalregion": "75119", "arraccessibility": "false", "arraudiblesignals": "true", "arrvisualsigns": "true", "arrfarezone": "1", "zdaid": "44227", "arrgeopoint": {"lon": 2.3866765356019912, "lat": 48.887149902823005}},{"arrid": "22110", "arrversion": "1026031-44662", "arrcreated": "2014-12-29T00:00:00+01:00", "arrchanged": "2021-05-04T17:56:37+02:00", "arrname": "Rome", "arrtype": "metro", "arrxepsg2154": 650234, "arryepsg2154": 6864907, "arrtown": "Paris 8e", "arrpostalregion": "75108", "arraccessibility": "false", "arraudiblesignals": "true", "arrvisualsigns": "true", "arrfarezone": "1", "zdaid": "44662", "arrgeopoint": {"lon": 2.321403977919389, "lat": 48.882256139421415}},{"arrid": "22125", "arrversion": "22125-1034623", "arrcreated": "2014-12-29T15:31:51+01:00", "arrchanged": "2021-05-04T17:56:37+02:00", "arrname": "Blanche", "arrtype": "metro", "arrxepsg2154": 651048, "arryepsg2154": 6865068, "arrtown": "Paris 9e", "arrpostalregion": "75109", "arraccessibility": "false", "arraudiblesignals": "true", "arrvisualsigns": "true", "arrfarezone": "1", "zdaid": "42337", "arrgeopoint": {"lon": 2.3324843754343627, "lat": 48.883766354463546}},{"arrid": "22107", "arrversion": "1021814-44901", "arrcreated": "2014-12-29T00:00:00+01:00", "arrchanged": "2021-05-04T17:56:37+02:00", "arrname": "Stalingrad", "arrtype": "metro", "arrxepsg2154": 653488, "arryepsg2154": 6865101, "arrtown": "Paris 10e", "arrpostalregion": "75110", "arraccessibility": "false", "arraudiblesignals": "true", "arrvisualsigns": "true", "arrfarezone": "1", "zdaid": "44901", "arrgeopoint": {"lon": 2.3657514391249888, "lat": 48.884243984554146}},{"arrid": "22103", "arrversion": "1022004-47247", "arrcreated": "2014-12-29T00:00:00+01:00", "arrchanged": "2021-05-04T17:56:37+02:00", "arrname": "Saint-Mand\u00e9", "arrtype": "metro", "arrxepsg2154": 657359, "arryepsg2154": 6860845, "arrtown": "Saint-Mand\u00e9", "arrpostalregion": "94067", "arraccessibility": "false", "arraudiblesignals": "true", "arrvisualsigns": "true", "arrfarezone": "2", "zdaid": "47247", "arrgeopoint": {"lon": 2.4189623545327077, "lat": 48.84623820804637}},{"arrid": "22084", "arrversion": "1024521-43283", "arrcreated": "2014-12-29T00:00:00+01:00", "arrchanged": "2021-05-04T17:56:37+02:00", "arrname": "George V", "arrtype": "metro", "arrxepsg2154": 648710, "arryepsg2154": 6863784, "arrtown": "Paris 8e", "arrpostalregion": "75108", "arraccessibility": "false", "arraudiblesignals": "true", "arrvisualsigns": "true", "arrfarezone": "1", "zdaid": "43283", "arrgeopoint": {"lon": 2.300759784978918, "lat": 48.87203776457546}},{"arrid": "22056", "arrversion": "1024334-799228", "arrcreated": "2014-12-29T00:00:00+01:00", "arrchanged": "2021-05-04T17:56:37+02:00", "arrname": "Falgui\u00e8re", "arrtype": "metro", "arrxepsg2154": 649915, "arryepsg2154": 6860691, "arrtown": "Paris 15e", "arrpostalregion": "75115", "arraccessibility": "false", "arraudiblesignals": "true", "arrvisualsigns": "true", "arrfarezone": "1", "zdaid": "42981", "arrgeopoint": {"lon": 2.3175512356170267, "lat": 48.84431768352064}},{"arrid": "22058", "arrversion": "22058-1035176", "arrcreated": "2014-12-29T15:31:51+01:00", "arrchanged": "2021-05-04T17:56:37+02:00", "arrname": "Convention", "arrtype": "metro", "arrxepsg2154": 648353, "arryepsg2154": 6859905, "arrtown": "Paris 15e", "arrpostalregion": "75115", "arraccessibility": "false", "arraudiblesignals": "true", "arrvisualsigns": "true", "arrfarezone": "1", "zdaid": "42751", "arrgeopoint": {"lon": 2.296364261434269, "lat": 48.8371259005073}},{"arrid": "22059", "arrversion": "22059-1026714", "arrcreated": "2014-12-29T15:31:51+01:00", "arrchanged": "2021-05-04T17:56:37+02:00", "arrname": "Abbesses", "arrtype": "metro", "arrxepsg2154": 651480, "arryepsg2154": 6865133, "arrtown": "Paris 18e", "arrpostalregion": "75118", "arraccessibility": "false", "arraudiblesignals": "true", "arrvisualsigns": "true", "arrfarezone": "1", "zdaid": "42155", "arrgeopoint": {"lon": 2.338367478180517, "lat": 48.88438357460971}},{"arrid": "22054", "arrversion": "1022603-1187212", "arrcreated": "2014-12-29T00:00:00+01:00", "arrchanged": "2021-05-04T17:56:37+02:00", "arrname": "Jules Joffrin", "arrtype": "metro", "arrxepsg2154": 651924, "arryepsg2154": 6866031, "arrtown": "Paris 18e", "arrpostalregion": "75118", "arraccessibility": "false", "arraudiblesignals": "true", "arrvisualsigns": "true", "arrfarezone": "1", "zdaid": "479055", "arrgeopoint": {"lon": 2.3443200293804827, "lat": 48.892492268188356}},{"arrid": "22041", "arrversion": "1025720-1351638", "arrcreated": "2014-12-29T00:00:00+01:00", "arrchanged": "2021-05-04T17:56:37+02:00", "arrname": "Porte de la Chapelle", "arrtype": "metro", "arrxepsg2154": 653023, "arryepsg2154": 6866568, "arrtown": "Paris 18e", "arrpostalregion": "75118", "arraccessibility": "false", "arraudiblesignals": "true", "arrvisualsigns": "true", "arrfarezone": "1", "zdaid": "473459", "arrgeopoint": {"lon": 2.359248542310361, "lat": 48.89740242265683}},{"arrid": "24679", "arrversion": "1022594-58497", "arrcreated": "2014-12-29T00:00:00+01:00", "arrchanged": "2021-05-04T17:56:37+02:00", "arrname": "Front Populaire", "arrtype": "metro", "arrxepsg2154": 653510, "arryepsg2154": 6867605, "arrtown": "Saint-Denis", "arrpostalregion": "93066", "arraccessibility": "false", "arraudiblesignals": "true", "arrvisualsigns": "true", "arrfarezone": "2", "zdaid": "58497", "arrgeopoint": {"lon": 2.365777177193171, "lat": 48.90676304815073}},{"arrid": "22010", "arrversion": "1021344-1026949", "arrcreated": "2014-12-29T00:00:00+01:00", "arrchanged": "2021-05-04T17:56:37+02:00", "arrname": "Bastille", "arrtype": "metro", "arrxepsg2154": 653693, "arryepsg2154": 6861657, "arrtown": "Paris 4e", "arrpostalregion": "75104", "arraccessibility": "false", "arraudiblesignals": "true", "arrvisualsigns": "true", "arrfarezone": "1", "zdaid": "42288", "arrgeopoint": {"lon": 2.3689220756469886, "lat": 48.853287478290675}},{"arrid": "22026", "arrversion": "1026357-700137", "arrcreated": "2014-12-29T00:00:00+01:00", "arrchanged": "2021-05-04T17:56:37+02:00", "arrname": "Temple", "arrtype": "metro", "arrxepsg2154": 653165, "arryepsg2154": 6863159, "arrtown": "Paris 3e", "arrpostalregion": "75103", "arraccessibility": "false", "arraudiblesignals": "true", "arrvisualsigns": "true", "arrfarezone": "1", "zdaid": "44924", "arrgeopoint": {"lon": 2.3615612345263557, "lat": 48.8667566294208}},{"arrid": "24681", "arrversion": "1021805-43823", "arrcreated": "2014-12-29T00:00:00+01:00", "arrchanged": "2021-05-04T17:56:37+02:00", "arrname": "Louis Blanc", "arrtype": "metro", "arrxepsg2154": 653388, "arryepsg2154": 6864764, "arrtown": "Paris 10e", "arrpostalregion": "75110", "arraccessibility": "false", "arraudiblesignals": "true", "arrvisualsigns": "true", "arrfarezone": "1", "zdaid": "43823", "arrgeopoint": {"lon": 2.3644248624936774, "lat": 48.88120621181238}},{"arrid": "22091", "arrversion": "1022444-1244788", "arrcreated": "2014-12-29T00:00:00+01:00", "arrchanged": "2021-05-04T17:56:37+02:00", "arrname": "H\u00f4tel de Ville", "arrtype": "metro", "arrxepsg2154": 652460, "arryepsg2154": 6862119, "arrtown": "Paris 4e", "arrpostalregion": "75104", "arraccessibility": "false", "arraudiblesignals": "true", "arrvisualsigns": "true", "arrfarezone": "1", "zdaid": "470524", "arrgeopoint": {"lon": 2.3520676701390997, "lat": 48.857352405172215}},{"arrid": "22092", "arrversion": "1023891-1641337", "arrcreated": "2014-12-29T00:00:00+01:00", "arrchanged": "2021-05-04T17:56:37+02:00", "arrname": "Ch\u00e2telet", "arrtype": "metro", "arrxepsg2154": 652064, "arryepsg2154": 6862379, "arrtown": "Paris 1er", "arrpostalregion": "75101", "arraccessibility": "false", "arraudiblesignals": "true", "arrvisualsigns": "true", "arrfarezone": "1", "zdaid": "42587", "arrgeopoint": {"lon": 2.3466414308440133, "lat": 48.85966121154543}},{"arrid": "22238", "arrversion": "1022644-44012", "arrcreated": "2014-12-29T00:00:00+01:00", "arrchanged": "2021-05-04T17:56:37+02:00", "arrname": "Mairie de Clichy", "arrtype": "metro", "arrxepsg2154": 649114, "arryepsg2154": 6867279, "arrtown": "Clichy", "arrpostalregion": "92024", "arraccessibility": "false", "arraudiblesignals": "true", "arrvisualsigns": "true", "arrfarezone": "2", "zdaid": "44012", "arrgeopoint": {"lon": 2.3058484063578852, "lat": 48.903498974613136}},{"arrid": "22240", "arrversion": "1023323-1026928", "arrcreated": "2014-12-29T00:00:00+01:00", "arrchanged": "2021-05-04T17:56:37+02:00", "arrname": "Basilique de Saint-Denis", "arrtype": "metro", "arrxepsg2154": 653062, "arryepsg2154": 6870947, "arrtown": "Saint-Denis", "arrpostalregion": "93066", "arraccessibility": "false", "arraudiblesignals": "true", "arrvisualsigns": "true", "arrfarezone": "2", "zdaid": "463329", "arrgeopoint": {"lon": 2.359295840812681, "lat": 48.93678306531069}},{"arrid": "22221", "arrversion": "1025712-44526", "arrcreated": "2014-12-29T00:00:00+01:00", "arrchanged": "2021-05-04T17:56:37+02:00", "arrname": "Porte de Vanves", "arrtype": "metro", "arrxepsg2154": 648994, "arryepsg2154": 6858847, "arrtown": "Paris 14e", "arrpostalregion": "75114", "arraccessibility": "false", "arraudiblesignals": "true", "arrvisualsigns": "true", "arrfarezone": "1", "zdaid": "44526", "arrgeopoint": {"lon": 2.305223578739507, "lat": 48.82766229776121}},{"arrid": "22223", "arrversion": "22223-45322", "arrcreated": "2014-12-29T15:31:51+01:00", "arrchanged": "2021-05-04T17:56:37+02:00", "arrname": "Plaisance", "arrtype": "metro", "arrxepsg2154": 649630, "arryepsg2154": 6859295, "arrtown": "Paris 14e", "arrpostalregion": "75114", "arraccessibility": "false", "arraudiblesignals": "true", "arrvisualsigns": "true", "arrfarezone": "1", "zdaid": "45322", "arrgeopoint": {"lon": 2.313833364032832, "lat": 48.83174121368737}},{"arrid": "22226", "arrversion": "1026469-45131", "arrcreated": "2014-12-29T00:00:00+01:00", "arrchanged": "2021-05-04T17:56:37+02:00", "arrname": "Varenne", "arrtype": "metro", "arrxepsg2154": 649748, "arryepsg2154": 6862061, "arrtown": "Paris 7e", "arrpostalregion": "75107", "arraccessibility": "false", "arraudiblesignals": "true", "arrvisualsigns": "true", "arrfarezone": "1", "zdaid": "45131", "arrgeopoint": {"lon": 2.3151139305096566, "lat": 48.85662498273289}},{"arrid": "22209", "arrversion": "1024870-43811", "arrcreated": "2014-12-29T00:00:00+01:00", "arrchanged": "2021-05-04T17:56:37+02:00", "arrname": "Libert\u00e9", "arrtype": "metro", "arrxepsg2154": 656427, "arryepsg2154": 6858618, "arrtown": "Charenton-le-Pont", "arrpostalregion": "94018", "arraccessibility": "false", "arraudiblesignals": "true", "arrvisualsigns": "true", "arrfarezone": "2", "zdaid": "43811", "arrgeopoint": {"lon": 2.406491231469926, "lat": 48.82614818059379}},{"arrid": "22203", "arrversion": "1024805-1347818", "arrcreated": "2014-12-29T00:00:00+01:00", "arrchanged": "2021-05-04T17:56:37+02:00", "arrname": "Ledru-Rollin", "arrtype": "metro", "arrxepsg2154": 654221, "arryepsg2154": 6861436, "arrtown": "Paris 11e", "arrpostalregion": "75111", "arraccessibility": "false", "arraudiblesignals": "true", "arrvisualsigns": "true", "arrfarezone": "1", "zdaid": "43674", "arrgeopoint": {"lon": 2.376141223318592, "lat": 48.851337766784695}},{"arrid": "22205", "arrversion": "1025173-44160", "arrcreated": "2014-12-29T00:00:00+01:00", "arrchanged": "2021-05-04T17:56:37+02:00", "arrname": "Montgallet", "arrtype": "metro", "arrxepsg2154": 655270, "arryepsg2154": 6860619, "arrtown": "Paris 12e", "arrpostalregion": "75112", "arraccessibility": "false", "arraudiblesignals": "true", "arrvisualsigns": "true", "arrfarezone": "1", "zdaid": "44160", "arrgeopoint": {"lon": 2.3905219564249194, "lat": 48.8440641552688}},{"arrid": "22199", "arrversion": "1020550-44617", "arrcreated": "2014-12-29T00:00:00+01:00", "arrchanged": "2021-05-04T17:56:37+02:00", "arrname": "R\u00e9publique", "arrtype": "metro", "arrxepsg2154": 653290, "arryepsg2154": 6863239, "arrtown": "Paris 3e", "arrpostalregion": "75103", "arraccessibility": "false", "arraudiblesignals": "true", "arrvisualsigns": "true", "arrfarezone": "1", "zdaid": "44617", "arrgeopoint": {"lon": 2.363256324247902, "lat": 48.86748513275838}},{"arrid": "22194", "arrversion": "1022534-43898", "arrcreated": "2014-12-29T00:00:00+01:00", "arrchanged": "2021-05-04T17:56:37+02:00", "arrname": "Madeleine", "arrtype": "metro", "arrxepsg2154": 650561, "arryepsg2154": 6863493, "arrtown": "Paris 1er", "arrpostalregion": "75101", "arraccessibility": "false", "arraudiblesignals": "true", "arrvisualsigns": "true", "arrfarezone": "1", "zdaid": "43898", "arrgeopoint": {"lon": 2.326027211772999, "lat": 48.869565616104076}},{"arrid": "22175", "arrversion": "1023099-1036962", "arrcreated": "2014-12-29T00:00:00+01:00", "arrchanged": "2021-05-04T17:56:37+02:00", "arrname": "Corvisart", "arrtype": "metro", "arrxepsg2154": 652328, "arryepsg2154": 6859063, "arrtown": "Paris 13e", "arrpostalregion": "75113", "arraccessibility": "false", "arraudiblesignals": "true", "arrvisualsigns": "true", "arrfarezone": "1", "zdaid": "45274", "arrgeopoint": {"lon": 2.3506112259261656, "lat": 48.82986001329865}},{"arrid": "22187", "arrversion": "1024920-841067", "arrcreated": "2014-12-29T00:00:00+01:00", "arrchanged": "2021-05-04T17:56:37+02:00", "arrname": "Lourmel", "arrtype": "metro", "arrxepsg2154": 647318, "arryepsg2154": 6860085, "arrtown": "Paris 15e", "arrpostalregion": "75115", "arraccessibility": "false", "arraudiblesignals": "true", "arrvisualsigns": "true", "arrfarezone": "1", "zdaid": "45363", "arrgeopoint": {"lon": 2.2822419598550767, "lat": 48.838660863646226}},{"arrid": "22188", "arrversion": "1023540-1034639", "arrcreated": "2014-12-29T00:00:00+01:00", "arrchanged": "2021-05-04T17:56:37+02:00", "arrname": "Boucicaut", "arrtype": "metro", "arrxepsg2154": 647737, "arryepsg2154": 6860344, "arrtown": "Paris 15e", "arrpostalregion": "75115", "arraccessibility": "false", "arraudiblesignals": "true", "arrvisualsigns": "true", "arrfarezone": "1", "zdaid": "42370", "arrgeopoint": {"lon": 2.287918431124559, "lat": 48.84102416097952}},{"arrid": "22189", "arrversion": "1024029-42984", "arrcreated": "2014-12-29T00:00:00+01:00", "arrchanged": "2021-05-04T17:56:37+02:00", "arrname": "F\u00e9lix Faure", "arrtype": "metro", "arrxepsg2154": 648027, "arryepsg2154": 6860526, "arrtown": "Paris 15e", "arrpostalregion": "75115", "arraccessibility": "false", "arraudiblesignals": "true", "arrvisualsigns": "true", "arrfarezone": "1", "zdaid": "42984", "arrgeopoint": {"lon": 2.2918472203679703, "lat": 48.84268433478293}},{"arrid": "22180", "arrversion": "1023441-1034706", "arrcreated": "2014-12-29T00:00:00+01:00", "arrchanged": "2021-05-04T17:56:37+02:00", "arrname": "Boissi\u00e8re", "arrtype": "metro", "arrxepsg2154": 647918, "arryepsg2154": 6863214, "arrtown": "Paris 16e", "arrpostalregion": "75116", "arraccessibility": "false", "arraudiblesignals": "true", "arrvisualsigns": "true", "arrfarezone": "1", "zdaid": "42359", "arrgeopoint": {"lon": 2.290032837607437, "lat": 48.86684834340366}},{"arrid": "22139", "arrversion": "1021226-45120", "arrcreated": "2014-12-29T00:00:00+01:00", "arrchanged": "2021-05-04T17:56:37+02:00", "arrname": "Saint-Sulpice", "arrtype": "metro", "arrxepsg2154": 650880, "arryepsg2154": 6861449, "arrtown": "Paris 6e", "arrpostalregion": "75106", "arraccessibility": "false", "arraudiblesignals": "true", "arrvisualsigns": "true", "arrfarezone": "1", "zdaid": "45120", "arrgeopoint": {"lon": 2.3306119530815423, "lat": 48.851208627553035}},{"arrid": "22398", "arrversion": "1023077-1347809", "arrcreated": "2014-12-29T00:00:00+01:00", "arrchanged": "2021-05-04T17:56:37+02:00", "arrname": "Le Kremlin-Bic\u00eatre", "arrtype": "metro", "arrxepsg2154": 653156, "arryepsg2154": 6856876, "arrtown": "Le Kremlin-Bic\u00eatre", "arrpostalregion": "94043", "arraccessibility": "false", "arraudiblesignals": "true", "arrvisualsigns": "true", "arrfarezone": "2", "zdaid": "43643", "arrgeopoint": {"lon": 2.3621304138025607, "lat": 48.81025257277612}},{"arrid": "22390", "arrversion": "1023618-1034849", "arrcreated": "2014-12-29T00:00:00+01:00", "arrchanged": "2021-05-04T17:56:37+02:00", "arrname": "Cadet", "arrtype": "metro", "arrxepsg2154": 651918, "arryepsg2154": 6864193, "arrtown": "Paris 9e", "arrpostalregion": "75109", "arraccessibility": "false", "arraudiblesignals": "true", "arrvisualsigns": "true", "arrfarezone": "1", "zdaid": "42414", "arrgeopoint": {"lon": 2.3444463097022736, "lat": 48.87596328506194}},{"arrid": "22379", "arrversion": "1025387-44491", "arrcreated": "2014-12-29T00:00:00+01:00", "arrchanged": "2021-05-04T17:56:37+02:00", "arrname": "Pont Neuf", "arrtype": "metro", "arrxepsg2154": 651701, "arryepsg2154": 6862248, "arrtown": "Paris 1er", "arrpostalregion": "75101", "arraccessibility": "false", "arraudiblesignals": "true", "arrvisualsigns": "true", "arrfarezone": "1", "zdaid": "44491", "arrgeopoint": {"lon": 2.341708923203476, "lat": 48.85845603109832}},{"arrid": "22373", "arrversion": "1021668-44513", "arrcreated": "2014-12-29T00:00:00+01:00", "arrchanged": "2021-05-04T17:56:37+02:00", "arrname": "Porte de Choisy", "arrtype": "metro", "arrxepsg2154": 653348, "arryepsg2154": 6857973, "arrtown": "Paris 13e", "arrpostalregion": "75113", "arraccessibility": "false", "arraudiblesignals": "true", "arrvisualsigns": "true", "arrfarezone": "1", "zdaid": "44513", "arrgeopoint": {"lon": 2.36462454900074, "lat": 48.82013208921864}},{"arrid": "22386", "arrversion": "1022390-43493", "arrcreated": "2014-12-29T00:00:00+01:00", "arrchanged": "2021-05-04T17:56:37+02:00", "arrname": "Jussieu", "arrtype": "metro", "arrxepsg2154": 652650, "arryepsg2154": 6860851, "arrtown": "Paris 5e", "arrpostalregion": "75105", "arraccessibility": "false", "arraudiblesignals": "true", "arrvisualsigns": "true", "arrfarezone": "1", "zdaid": "43493", "arrgeopoint": {"lon": 2.354798309820857, "lat": 48.845963339024394}},{"arrid": "22383", "arrversion": "1024832-43737", "arrcreated": "2014-12-29T00:00:00+01:00", "arrchanged": "2021-05-04T17:56:37+02:00", "arrname": "Les Gobelins", "arrtype": "metro", "arrxepsg2154": 652466, "arryepsg2154": 6859727, "arrtown": "Paris 13e", "arrpostalregion": "75113", "arraccessibility": "false", "arraudiblesignals": "true", "arrvisualsigns": "true", "arrfarezone": "1", "zdaid": "43737", "arrgeopoint": {"lon": 2.352416801898275, "lat": 48.835841622330754}},{"arrid": "22384", "arrversion": "1021843-43823", "arrcreated": "2014-12-29T00:00:00+01:00", "arrchanged": "2021-05-04T17:56:37+02:00", "arrname": "Louis Blanc", "arrtype": "metro", "arrxepsg2154": 653383, "arryepsg2154": 6864768, "arrtown": "Paris 10e", "arrpostalregion": "75110", "arraccessibility": "false", "arraudiblesignals": "true", "arrvisualsigns": "true", "arrfarezone": "1", "zdaid": "43823", "arrgeopoint": {"lon": 2.364356249189078, "lat": 48.881241820739106}},{"arrid": "474397", "arrversion": "1119422-43511", "arrcreated": "2019-05-16T00:00:00+02:00", "arrchanged": "2021-05-04T17:56:37+02:00", "arrname": "Miromesnil", "arrtype": "metro", "arrxepsg2154": 649825, "arryepsg2154": 6863931, "arrtown": "Paris 8e", "arrpostalregion": "75108", "arraccessibility": "false", "arraudiblesignals": "true", "arrvisualsigns": "true", "arrfarezone": "1", "zdaid": "43511", "arrgeopoint": {"lon": 2.3159507090192264, "lat": 48.87344757301146}},{"arrid": "463078", "arrversion": "1022396-43493", "arrcreated": "2019-01-28T00:00:00+01:00", "arrchanged": "2021-05-04T17:56:37+02:00", "arrname": "Jussieu", "arrtype": "metro", "arrxepsg2154": 652650, "arryepsg2154": 6860851, "arrtown": "Paris 5e", "arrpostalregion": "75105", "arraccessibility": "false", "arraudiblesignals": "true", "arrvisualsigns": "true", "arrfarezone": "1", "zdaid": "43493", "arrgeopoint": {"lon": 2.354798309820857, "lat": 48.845963339024394}},{"arrid": "463085", "arrversion": "1022635-45322", "arrcreated": "2019-01-28T00:00:00+01:00", "arrchanged": "2021-05-04T17:56:37+02:00", "arrname": "Plaisance", "arrtype": "metro", "arrxepsg2154": 649632, "arryepsg2154": 6859296, "arrtown": "Paris 14e", "arrpostalregion": "75114", "arraccessibility": "false", "arraudiblesignals": "true", "arrvisualsigns": "true", "arrfarezone": "1", "zdaid": "45322", "arrgeopoint": {"lon": 2.3138604893443055, "lat": 48.83175036305376}},{"arrid": "463080", "arrversion": "1022452-1244788", "arrcreated": "2019-01-28T00:00:00+01:00", "arrchanged": "2021-05-04T17:56:37+02:00", "arrname": "H\u00f4tel de Ville", "arrtype": "metro", "arrxepsg2154": 652460, "arryepsg2154": 6862119, "arrtown": "Paris 4e", "arrpostalregion": "75104", "arraccessibility": "false", "arraudiblesignals": "true", "arrvisualsigns": "true", "arrfarezone": "1", "zdaid": "470524", "arrgeopoint": {"lon": 2.3520676701390997, "lat": 48.857352405172215}},{"arrid": "463060", "arrversion": "1022461-1641337", "arrcreated": "2019-01-28T00:00:00+01:00", "arrchanged": "2021-05-04T17:56:37+02:00", "arrname": "Ch\u00e2telet", "arrtype": "metro", "arrxepsg2154": 652168, "arryepsg2154": 6862067, "arrtown": "Paris 4e", "arrpostalregion": "75104", "arraccessibility": "false", "arraudiblesignals": "true", "arrvisualsigns": "true", "arrfarezone": "1", "zdaid": "42587", "arrgeopoint": {"lon": 2.348102094822081, "lat": 48.856867701556865}},{"arrid": "463071", "arrversion": "1022806-44864", "arrcreated": "2019-01-28T00:00:00+01:00", "arrchanged": "2021-05-04T17:56:37+02:00", "arrname": "Saint-Fargeau", "arrtype": "metro", "arrxepsg2154": 656309, "arryepsg2154": 6863705, "arrtown": "Paris 20e", "arrpostalregion": "75120", "arraccessibility": "false", "arraudiblesignals": "true", "arrvisualsigns": "true", "arrfarezone": "1", "zdaid": "44864", "arrgeopoint": {"lon": 2.404361344448241, "lat": 48.87188765806338}},{"arrid": "463053", "arrversion": "1022303-44650", "arrcreated": "2019-01-28T00:00:00+01:00", "arrchanged": "2021-05-04T17:56:37+02:00", "arrname": "Robespierre", "arrtype": "metro", "arrxepsg2154": 657659, "arryepsg2154": 6861901, "arrtown": "Montreuil", "arrpostalregion": "93048", "arraccessibility": "false", "arraudiblesignals": "true", "arrvisualsigns": "true", "arrfarezone": "2", "zdaid": "44650", "arrgeopoint": {"lon": 2.422944933632472, "lat": 48.85575461388138}},{"arrid": "463012", "arrversion": "1021994-44528", "arrcreated": "2019-01-28T00:00:00+01:00", "arrchanged": "2021-05-04T17:56:37+02:00", "arrname": "Porte de Vincennes", "arrtype": "metro", "arrxepsg2154": 656761, "arryepsg2154": 6860935, "arrtown": "Paris 12e", "arrpostalregion": "75112", "arraccessibility": "false", "arraudiblesignals": "true", "arrvisualsigns": "true", "arrfarezone": "1", "zdaid": "44528", "arrgeopoint": {"lon": 2.4108049967015, "lat": 48.84700773107495}},{"arrid": "463029", "arrversion": "1021659-661051", "arrcreated": "2019-01-28T00:00:00+01:00", "arrchanged": "2021-05-04T17:56:37+02:00", "arrname": "Porte d'Ivry", "arrtype": "metro", "arrxepsg2154": 653692, "arryepsg2154": 6858106, "arrtown": "Paris 13e", "arrpostalregion": "75113", "arraccessibility": "false", "arraudiblesignals": "true", "arrvisualsigns": "true", "arrfarezone": "1", "zdaid": "44507", "arrgeopoint": {"lon": 2.3692949782233117, "lat": 48.82135298832312}},{"arrid": "463030", "arrversion": "1021678-44513", "arrcreated": "2019-01-28T00:00:00+01:00", "arrchanged": "2021-05-04T17:56:37+02:00", "arrname": "Porte de Choisy", "arrtype": "metro", "arrxepsg2154": 653351, "arryepsg2154": 6857964, "arrtown": "Paris 13e", "arrpostalregion": "75113", "arraccessibility": "false", "arraudiblesignals": "true", "arrvisualsigns": "true", "arrfarezone": "1", "zdaid": "44513", "arrgeopoint": {"lon": 2.3646785940494577, "lat": 48.820055929134405}},{"arrid": "463007", "arrversion": "1021697-1309045", "arrcreated": "2019-01-28T00:00:00+01:00", "arrchanged": "2021-05-04T17:56:37+02:00", "arrname": "Porte de la Villette", "arrtype": "metro", "arrxepsg2154": 654968, "arryepsg2154": 6866604, "arrtown": "Paris 19e", "arrpostalregion": "75119", "arraccessibility": "false", "arraudiblesignals": "true", "arrvisualsigns": "true", "arrfarezone": "1", "zdaid": "473461", "arrgeopoint": {"lon": 2.3857788171360426, "lat": 48.89786518169718}},{"arrid": "463008", "arrversion": "1021739-44901", "arrcreated": "2019-01-28T00:00:00+01:00", "arrchanged": "2021-05-04T17:56:37+02:00", "arrname": "Stalingrad", "arrtype": "metro", "arrxepsg2154": 653718, "arryepsg2154": 6865113, "arrtown": "Paris 19e", "arrpostalregion": "75119", "arraccessibility": "false", "arraudiblesignals": "true", "arrvisualsigns": "true", "arrfarezone": "1", "zdaid": "44901", "arrgeopoint": {"lon": 2.368898549057673, "lat": 48.88437303054766}},{"arrid": "463004", "arrversion": "1021598-44192", "arrcreated": "2019-01-28T00:00:00+01:00", "arrchanged": "2021-05-04T17:56:37+02:00", "arrname": "Nationale", "arrtype": "metro", "arrxepsg2154": 653226, "arryepsg2154": 6859431, "arrtown": "Paris 13e", "arrpostalregion": "75113", "arraccessibility": "false", "arraudiblesignals": "true", "arrvisualsigns": "true", "arrfarezone": "1", "zdaid": "44192", "arrgeopoint": {"lon": 2.362804171593507, "lat": 48.83323527966245}},{"arrid": "463319", "arrversion": "1026447-44923", "arrcreated": "2019-01-29T00:00:00+01:00", "arrchanged": "2021-05-04T17:56:37+02:00", "arrname": "T\u00e9l\u00e9graphe", "arrtype": "metro", "arrxepsg2154": 655895, "arryepsg2154": 6864112, "arrtown": "Paris 19e", "arrpostalregion": "75119", "arraccessibility": "false", "arraudiblesignals": "true", "arrvisualsigns": "true", "arrfarezone": "1", "zdaid": "44923", "arrgeopoint": {"lon": 2.3986752529487725, "lat": 48.875519513933504}},{"arrid": "463186", "arrversion": "1024539-45276", "arrcreated": "2019-01-29T00:00:00+01:00", "arrchanged": "2021-05-04T17:56:37+02:00", "arrname": "Glaci\u00e8re", "arrtype": "metro", "arrxepsg2154": 651802, "arryepsg2154": 6859207, "arrtown": "Paris 13e", "arrpostalregion": "75113", "arraccessibility": "false", "arraudiblesignals": "true", "arrvisualsigns": "true", "arrfarezone": "1", "zdaid": "45276", "arrgeopoint": {"lon": 2.3434382366787037, "lat": 48.831115947602726}},{"arrid": "21991", "arrversion": "1025906-1249384", "arrcreated": "2014-12-29T00:00:00+01:00", "arrchanged": "2021-05-04T17:56:37+02:00", "arrname": "Pyr\u00e9n\u00e9es", "arrtype": "metro", "arrxepsg2154": 654882, "arryepsg2154": 6863930, "arrtown": "Paris 19e", "arrpostalregion": "75119", "arraccessibility": "false", "arraudiblesignals": "true", "arrvisualsigns": "true", "arrfarezone": "1", "zdaid": "44580", "arrgeopoint": {"lon": 2.384883957748741, "lat": 48.8738126549039}},{"arrid": "21990", "arrversion": "1022436-1244788", "arrcreated": "2014-12-29T00:00:00+01:00", "arrchanged": "2021-05-04T17:56:37+02:00", "arrname": "H\u00f4tel de Ville", "arrtype": "metro", "arrxepsg2154": 652422, "arryepsg2154": 6862144, "arrtown": "Paris 4e", "arrpostalregion": "75104", "arraccessibility": "false", "arraudiblesignals": "true", "arrvisualsigns": "true", "arrfarezone": "1", "zdaid": "470524", "arrgeopoint": {"lon": 2.3515469856154696, "lat": 48.85757442236626}},{"arrid": "463189", "arrversion": "1024575-999387", "arrcreated": "2019-01-29T00:00:00+01:00", "arrchanged": "2021-05-04T17:56:37+02:00", "arrname": "Havre-Caumartin", "arrtype": "metro", "arrxepsg2154": 650677, "arryepsg2154": 6863935, "arrtown": "Paris 9e", "arrpostalregion": "75109", "arraccessibility": "false", "arraudiblesignals": "true", "arrvisualsigns": "true", "arrfarezone": "1", "zdaid": "462375", "arrgeopoint": {"lon": 2.3275585462196897, "lat": 48.873549317857474}},{"arrid": "463192", "arrversion": "1024665-43483", "arrcreated": "2019-01-29T00:00:00+01:00", "arrchanged": "2021-05-04T17:56:37+02:00", "arrname": "Jourdain", "arrtype": "metro", "arrxepsg2154": 655209, "arryepsg2154": 6864087, "arrtown": "Paris 19e", "arrpostalregion": "75119", "arraccessibility": "false", "arraudiblesignals": "true", "arrvisualsigns": "true", "arrfarezone": "1", "zdaid": "43483", "arrgeopoint": {"lon": 2.3893253789100957, "lat": 48.87524734862779}},{"arrid": "463190", "arrversion": "1024623-43395", "arrcreated": "2019-01-29T00:00:00+01:00", "arrchanged": "2021-05-04T17:56:37+02:00", "arrname": "I\u00e9na", "arrtype": "metro", "arrxepsg2154": 648197, "arryepsg2154": 6862981, "arrtown": "Paris 16e", "arrpostalregion": "75116", "arraccessibility": "false", "arraudiblesignals": "true", "arrvisualsigns": "true", "arrfarezone": "1", "zdaid": "43395", "arrgeopoint": {"lon": 2.2938642256822708, "lat": 48.86478002224381}},{"arrid": "21966", "arrversion": "1022403-1641337", "arrcreated": "2014-12-29T00:00:00+01:00", "arrchanged": "2021-05-04T17:56:37+02:00", "arrname": "Ch\u00e2telet", "arrtype": "metro", "arrxepsg2154": 652150, "arryepsg2154": 6862167, "arrtown": "Paris 4e", "arrpostalregion": "75104", "arraccessibility": "false", "arraudiblesignals": "true", "arrvisualsigns": "true", "arrfarezone": "1", "zdaid": "42587", "arrgeopoint": {"lon": 2.3478374055687863, "lat": 48.85776111353136}},{"arrid": "21964", "arrversion": "1020803-999333", "arrcreated": "2014-12-29T00:00:00+01:00", "arrchanged": "2021-05-04T17:56:37+02:00", "arrname": "Saint-Lazare", "arrtype": "metro", "arrxepsg2154": 650671, "arryepsg2154": 6864173, "arrtown": "Paris 9e", "arrpostalregion": "75109", "arraccessibility": "false", "arraudiblesignals": "true", "arrvisualsigns": "true", "arrfarezone": "1", "zdaid": "462374", "arrgeopoint": {"lon": 2.32744775001932, "lat": 48.875689121940304}},{"arrid": "463163", "arrversion": "1024036-42984", "arrcreated": "2019-01-29T00:00:00+01:00", "arrchanged": "2021-05-04T17:56:37+02:00", "arrname": "F\u00e9lix Faure", "arrtype": "metro", "arrxepsg2154": 648020, "arryepsg2154": 6860533, "arrtown": "Paris 15e", "arrpostalregion": "75115", "arraccessibility": "false", "arraudiblesignals": "true", "arrvisualsigns": "true", "arrfarezone": "1", "zdaid": "42984", "arrgeopoint": {"lon": 2.2917518097199006, "lat": 48.84274672572988}},{"arrid": "463133", "arrversion": "1023498-1034564", "arrcreated": "2019-01-29T00:00:00+01:00", "arrchanged": "2021-05-04T17:56:37+02:00", "arrname": "Bonne Nouvelle", "arrtype": "metro", "arrxepsg2154": 652205, "arryepsg2154": 6863582, "arrtown": "Paris 2e", "arrpostalregion": "75102", "arraccessibility": "false", "arraudiblesignals": "true", "arrvisualsigns": "true", "arrfarezone": "1", "zdaid": "45100", "arrgeopoint": {"lon": 2.3484286678670165, "lat": 48.87049007201711}},{"arrid": "463148", "arrversion": "1023801-1035021", "arrcreated": "2019-01-29T00:00:00+01:00", "arrchanged": "2021-05-04T17:56:37+02:00", "arrname": "Ch\u00e2teau Rouge", "arrtype": "metro", "arrxepsg2154": 652289, "arryepsg2154": 6865426, "arrtown": "Paris 18e", "arrpostalregion": "75118", "arraccessibility": "false", "arraudiblesignals": "true", "arrvisualsigns": "true", "arrfarezone": "1", "zdaid": "42585", "arrgeopoint": {"lon": 2.34936580800484, "lat": 48.88707887745391}},{"arrid": "463120", "arrversion": "1023211-1026754", "arrcreated": "2019-01-29T00:00:00+01:00", "arrchanged": "2021-05-04T17:56:37+02:00", "arrname": "Anvers", "arrtype": "metro", "arrxepsg2154": 651903, "arryepsg2154": 6864961, "arrtown": "Paris 9e", "arrpostalregion": "75109", "arraccessibility": "false", "arraudiblesignals": "true", "arrvisualsigns": "true", "arrfarezone": "1", "zdaid": "42210", "arrgeopoint": {"lon": 2.344154840330291, "lat": 48.882868568830325}},{"arrid": "463132", "arrversion": "1023481-1034611", "arrcreated": "2019-01-29T00:00:00+01:00", "arrchanged": "2021-05-04T17:56:37+02:00", "arrname": "Bolivar", "arrtype": "metro", "arrxepsg2154": 654101, "arryepsg2154": 6864712, "arrtown": "Paris 19e", "arrpostalregion": "75119", "arraccessibility": "false", "arraudiblesignals": "true", "arrvisualsigns": "true", "arrfarezone": "1", "zdaid": "58767", "arrgeopoint": {"lon": 2.3741521406987514, "lat": 48.88078980551832}},{"arrid": "463102", "arrversion": "1023044-43498", "arrcreated": "2019-01-28T00:00:00+01:00", "arrchanged": "2021-05-04T17:56:37+02:00", "arrname": "Kl\u00e9ber", "arrtype": "metro", "arrxepsg2154": 648164, "arryepsg2154": 6863707, "arrtown": "Paris 16e", "arrpostalregion": "75116", "arraccessibility": "false", "arraudiblesignals": "true", "arrvisualsigns": "true", "arrfarezone": "1", "zdaid": "43498", "arrgeopoint": {"lon": 2.293325917989232, "lat": 48.871301612025476}},{"arrid": "21939", "arrversion": "1021860-1034598", "arrcreated": "2014-12-29T00:00:00+01:00", "arrchanged": "2021-05-04T17:56:37+02:00", "arrname": "Billancourt", "arrtype": "metro", "arrxepsg2154": 644061, "arryepsg2154": 6859356, "arrtown": "Boulogne-Billancourt", "arrpostalregion": "92012", "arraccessibility": "false", "arraudiblesignals": "true", "arrvisualsigns": "true", "arrfarezone": "2", "zdaid": "42334", "arrgeopoint": {"lon": 2.237965973200589, "lat": 48.83183051283575}},{"arrid": "21934", "arrversion": "1023700-1034962", "arrcreated": "2014-12-29T00:00:00+01:00", "arrchanged": "2021-05-04T17:56:37+02:00", "arrname": "Charonne", "arrtype": "metro", "arrxepsg2154": 654866, "arryepsg2154": 6861839, "arrtown": "Paris 11e", "arrpostalregion": "75111", "arraccessibility": "false", "arraudiblesignals": "true", "arrvisualsigns": "true", "arrfarezone": "1", "zdaid": "42560", "arrgeopoint": {"lon": 2.384887898669042, "lat": 48.85500743703706}},{"arrid": "21933", "arrversion": "1023487-1034564", "arrcreated": "2014-12-29T00:00:00+01:00", "arrchanged": "2021-05-04T17:56:37+02:00", "arrname": "Bonne Nouvelle", "arrtype": "metro", "arrxepsg2154": 652210, "arryepsg2154": 6863599, "arrtown": "Paris 10e", "arrpostalregion": "75110", "arraccessibility": "false", "arraudiblesignals": "true", "arrvisualsigns": "true", "arrfarezone": "1", "zdaid": "45100", "arrgeopoint": {"lon": 2.348494097937537, "lat": 48.870643316003274}},{"arrid": "21915", "arrversion": "1025945-44594", "arrcreated": "2014-12-29T00:00:00+01:00", "arrchanged": "2021-05-04T17:56:37+02:00", "arrname": "Ranelagh", "arrtype": "metro", "arrxepsg2154": 646439, "arryepsg2154": 6861944, "arrtown": "Paris 16e", "arrpostalregion": "75116", "arraccessibility": "false", "arraudiblesignals": "true", "arrvisualsigns": "true", "arrfarezone": "1", "zdaid": "44594", "arrgeopoint": {"lon": 2.2700326975618985, "lat": 48.8553062148734}},{"arrid": "21913", "arrversion": "1025665-44520", "arrcreated": "2014-12-29T00:00:00+01:00", "arrchanged": "2021-05-04T17:56:37+02:00", "arrname": "Porte de Montreuil", "arrtype": "metro", "arrxepsg2154": 656759, "arryepsg2154": 6861664, "arrtown": "Paris 20e", "arrpostalregion": "75120", "arraccessibility": "false", "arraudiblesignals": "true", "arrvisualsigns": "true", "arrfarezone": "1", "zdaid": "44520", "arrgeopoint": {"lon": 2.410703611023541, "lat": 48.85356350092935}},{"arrid": "463299", "arrversion": "1026094-917066", "arrcreated": "2019-01-29T00:00:00+01:00", "arrchanged": "2021-05-04T17:56:37+02:00", "arrname": "Saint-Ambroise", "arrtype": "metro", "arrxepsg2154": 654072, "arryepsg2154": 6862565, "arrtown": "Paris 11e", "arrpostalregion": "75111", "arraccessibility": "false", "arraudiblesignals": "true", "arrvisualsigns": "true", "arrfarezone": "1", "zdaid": "45205", "arrgeopoint": {"lon": 2.3739964519221886, "lat": 48.861480218454}},{"arrid": "463277", "arrversion": "1025637-44512", "arrcreated": "2019-01-29T00:00:00+01:00", "arrchanged": "2021-05-04T17:56:37+02:00", "arrname": "Porte de Charenton", "arrtype": "metro", "arrxepsg2154": 656130, "arryepsg2154": 6859450, "arrtown": "Paris 12e", "arrpostalregion": "75112", "arraccessibility": "false", "arraudiblesignals": "true", "arrvisualsigns": "true", "arrfarezone": "1", "zdaid": "44512", "arrgeopoint": {"lon": 2.4023729755418683, "lat": 48.83361041467999}},{"arrid": "463283", "arrversion": "1025843-44579", "arrcreated": "2019-01-29T00:00:00+01:00", "arrchanged": "2021-05-04T17:56:37+02:00", "arrname": "Pyramides", "arrtype": "metro", "arrxepsg2154": 651163, "arryepsg2154": 6863072, "arrtown": "Paris 1er", "arrpostalregion": "75101", "arraccessibility": "false", "arraudiblesignals": "true", "arrvisualsigns": "true", "arrfarezone": "1", "zdaid": "44579", "arrgeopoint": {"lon": 2.33429208315197, "lat": 48.86583012817631}},{"arrid": "463296", "arrversion": "1026036-44662", "arrcreated": "2019-01-29T00:00:00+01:00", "arrchanged": "2021-05-04T17:56:37+02:00", "arrname": "Rome", "arrtype": "metro", "arrxepsg2154": 650230, "arryepsg2154": 6864917, "arrtown": "Paris 17e", "arrpostalregion": "75117", "arraccessibility": "false", "arraudiblesignals": "true", "arrvisualsigns": "true", "arrfarezone": "1", "zdaid": "44662", "arrgeopoint": {"lon": 2.321359173822972, "lat": 48.88234581878253}},{"arrid": "463259", "arrversion": "1025620-44524", "arrcreated": "2019-01-29T00:00:00+01:00", "arrchanged": "2021-05-04T17:56:37+02:00", "arrname": "Porte de Saint-Cloud", "arrtype": "metro", "arrxepsg2154": 645449, "arryepsg2154": 6860028, "arrtown": "Paris 16e", "arrpostalregion": "75116", "arraccessibility": "false", "arraudiblesignals": "true", "arrvisualsigns": "true", "arrfarezone": "1", "zdaid": "44524", "arrgeopoint": {"lon": 2.256789496420714, "lat": 48.837997282860094}},{"arrid": "463234", "arrversion": "1025511-44504", "arrcreated": "2019-01-29T00:00:00+01:00", "arrchanged": "2021-05-04T17:56:37+02:00", "arrname": "Porte d'Auteuil", "arrtype": "metro", "arrxepsg2154": 645569, "arryepsg2154": 6861129, "arrtown": "Paris 16e", "arrpostalregion": "75116", "arraccessibility": "false", "arraudiblesignals": "true", "arrvisualsigns": "true", "arrfarezone": "1", "zdaid": "44504", "arrgeopoint": {"lon": 2.2582807445955364, "lat": 48.84790412361554}},{"arrid": "463235", "arrversion": "1025570-1096872", "arrcreated": "2019-01-29T00:00:00+01:00", "arrchanged": "2021-05-04T17:56:37+02:00", "arrname": "Porte d'Italie", "arrtype": "metro", "arrxepsg2154": 652973, "arryepsg2154": 6857862, "arrtown": "Paris 13e", "arrpostalregion": "75113", "arraccessibility": "false", "arraudiblesignals": "true", "arrvisualsigns": "true", "arrfarezone": "1", "zdaid": "473456", "arrgeopoint": {"lon": 2.3595297331071694, "lat": 48.819106596544934}},{"arrid": "463242", "arrversion": "1025191-1347976", "arrcreated": "2019-01-29T00:00:00+01:00", "arrchanged": "2021-05-04T17:56:37+02:00", "arrname": "Mouton-Duvernet", "arrtype": "metro", "arrxepsg2154": 650808, "arryepsg2154": 6859240, "arrtown": "Paris 14e", "arrpostalregion": "75114", "arraccessibility": "false", "arraudiblesignals": "true", "arrvisualsigns": "true", "arrfarezone": "1", "zdaid": "44183", "arrgeopoint": {"lon": 2.3298876404084203, "lat": 48.831337585557804}},{"arrid": "463243", "arrversion": "1025204-44133", "arrcreated": "2019-01-29T00:00:00+01:00", "arrchanged": "2021-05-04T17:56:37+02:00", "arrname": "M\u00e9nilmontant", "arrtype": "metro", "arrxepsg2154": 654768, "arryepsg2154": 6863105, "arrtown": "Paris 11e", "arrpostalregion": "75111", "arraccessibility": "false", "arraudiblesignals": "true", "arrvisualsigns": "true", "arrfarezone": "1", "zdaid": "44133", "arrgeopoint": {"lon": 2.3834303882303045, "lat": 48.866390140131784}},{"arrid": "463244", "arrversion": "1025218-42237", "arrcreated": "2019-01-29T00:00:00+01:00", "arrchanged": "2021-05-04T17:56:37+02:00", "arrname": "Op\u00e9ra", "arrtype": "metro", "arrxepsg2154": 651007, "arryepsg2154": 6863611, "arrtown": "Paris 9e", "arrpostalregion": "75109", "arraccessibility": "false", "arraudiblesignals": "true", "arrvisualsigns": "true", "arrfarezone": "1", "zdaid": "42237", "arrgeopoint": {"lon": 2.3320941299398554, "lat": 48.87066534464235}},{"arrid": "463246", "arrversion": "1025252-42237", "arrcreated": "2019-01-29T00:00:00+01:00", "arrchanged": "2021-05-04T17:56:37+02:00", "arrname": "Op\u00e9ra", "arrtype": "metro", "arrxepsg2154": 650937, "arryepsg2154": 6863706, "arrtown": "Paris 9e", "arrpostalregion": "75109", "arraccessibility": "false", "arraudiblesignals": "true", "arrvisualsigns": "true", "arrfarezone": "1", "zdaid": "42237", "arrgeopoint": {"lon": 2.3311289743015604, "lat": 48.87150983277054}},{"arrid": "463219", "arrversion": "1024940-44050", "arrcreated": "2019-01-29T00:00:00+01:00", "arrchanged": "2021-05-04T17:56:37+02:00", "arrname": "Mairie d'Issy", "arrtype": "metro", "arrxepsg2154": 646666, "arryepsg2154": 6858499, "arrtown": "Issy-les-Moulineaux", "arrpostalregion": "92040", "arraccessibility": "false", "arraudiblesignals": "true", "arrvisualsigns": "true", "arrfarezone": "2", "zdaid": "44050", "arrgeopoint": {"lon": 2.2735581680239316, "lat": 48.82434428765272}},{"arrid": "463215", "arrversion": "1025099-44072", "arrcreated": "2019-01-29T00:00:00+01:00", "arrchanged": "2021-05-04T17:56:37+02:00", "arrname": "Mara\u00eechers", "arrtype": "metro", "arrxepsg2154": 656416, "arryepsg2154": 6861565, "arrtown": "Paris 20e", "arrpostalregion": "75120", "arraccessibility": "false", "arraudiblesignals": "true", "arrvisualsigns": "true", "arrfarezone": "1", "zdaid": "44072", "arrgeopoint": {"lon": 2.4060490065790447, "lat": 48.85265013094269}},{"arrid": "463210", "arrversion": "1024913-51613", "arrcreated": "2019-01-29T00:00:00+01:00", "arrchanged": "2021-05-04T17:56:37+02:00", "arrname": "Louise Michel", "arrtype": "metro", "arrxepsg2154": 647802, "arryepsg2154": 6865622, "arrtown": "Levallois-Perret", "arrpostalregion": "92044", "arraccessibility": "false", "arraudiblesignals": "true", "arrvisualsigns": "true", "arrfarezone": "2", "zdaid": "51613", "arrgeopoint": {"lon": 2.288168006806735, "lat": 48.888493381658336}},{"arrid": "463226", "arrversion": "1025064-44140", "arrcreated": "2019-01-29T00:00:00+01:00", "arrchanged": "2021-05-04T17:56:37+02:00", "arrname": "Michel Bizot", "arrtype": "metro", "arrxepsg2154": 656133, "arryepsg2154": 6859835, "arrtown": "Paris 12e", "arrpostalregion": "75112", "arraccessibility": "false", "arraudiblesignals": "true", "arrvisualsigns": "true", "arrfarezone": "1", "zdaid": "44140", "arrgeopoint": {"lon": 2.4023667399880035, "lat": 48.83707743102207}},{"arrid": "463208", "arrversion": "1024865-828124", "arrcreated": "2019-01-29T00:00:00+01:00", "arrchanged": "2021-05-04T17:56:37+02:00", "arrname": "Les Halles", "arrtype": "metro", "arrxepsg2154": 652028, "arryepsg2154": 6862695, "arrtown": "Paris 1er", "arrpostalregion": "75101", "arraccessibility": "false", "arraudiblesignals": "true", "arrvisualsigns": "true", "arrfarezone": "1", "zdaid": "417675", "arrgeopoint": {"lon": 2.3461273251736805, "lat": 48.86250484032574}},{"arrid": "462962", "arrversion": "1020599-44617", "arrcreated": "2019-01-28T00:00:00+01:00", "arrchanged": "2021-05-04T17:56:37+02:00", "arrname": "R\u00e9publique", "arrtype": "metro", "arrxepsg2154": 653282, "arryepsg2154": 6863232, "arrtown": "Paris 3e", "arrpostalregion": "75103", "arraccessibility": "false", "arraudiblesignals": "true", "arrvisualsigns": "true", "arrfarezone": "1", "zdaid": "44617", "arrgeopoint": {"lon": 2.3631494069003818, "lat": 48.867421610013416}},{"arrid": "462963", "arrversion": "1020636-44617", "arrcreated": "2019-01-28T00:00:00+01:00", "arrchanged": "2021-05-04T17:56:37+02:00", "arrname": "R\u00e9publique", "arrtype": "metro", "arrxepsg2154": 653293, "arryepsg2154": 6863242, "arrtown": "Paris 3e", "arrpostalregion": "75103", "arraccessibility": "false", "arraudiblesignals": "true", "arrvisualsigns": "true", "arrfarezone": "1", "zdaid": "44617", "arrgeopoint": {"lon": 2.3633023407804536, "lat": 48.8675123577975}},{"arrid": "462960", "arrversion": "1020529-44617", "arrcreated": "2019-01-28T00:00:00+01:00", "arrchanged": "2021-05-04T17:56:37+02:00", "arrname": "R\u00e9publique", "arrtype": "metro", "arrxepsg2154": 653409, "arryepsg2154": 6863282, "arrtown": "Paris 11e", "arrpostalregion": "75111", "arraccessibility": "false", "arraudiblesignals": "true", "arrvisualsigns": "true", "arrfarezone": "1", "zdaid": "44617", "arrgeopoint": {"lon": 2.364879672534778, "lat": 48.867884971335165}},{"arrid": "462945", "arrversion": "1020485-44593", "arrcreated": "2019-01-28T00:00:00+01:00", "arrchanged": "2021-05-04T17:56:37+02:00", "arrname": "Rambuteau", "arrtype": "metro", "arrxepsg2154": 652552, "arryepsg2154": 6862545, "arrtown": "Paris 4e", "arrpostalregion": "75104", "arraccessibility": "false", "arraudiblesignals": "true", "arrvisualsigns": "true", "arrfarezone": "1", "zdaid": "44593", "arrgeopoint": {"lon": 2.353273948594771, "lat": 48.8611901569367}},{"arrid": "462946", "arrversion": "1020678-44617", "arrcreated": "2019-01-28T00:00:00+01:00", "arrchanged": "2021-05-04T17:56:37+02:00", "arrname": "R\u00e9publique", "arrtype": "metro", "arrxepsg2154": 653368, "arryepsg2154": 6863207, "arrtown": "Paris 3e", "arrpostalregion": "75103", "arraccessibility": "false", "arraudiblesignals": "true", "arrvisualsigns": "true", "arrfarezone": "1", "zdaid": "44617", "arrgeopoint": {"lon": 2.3643332975454276, "lat": 48.86720306821413}},{"arrid": "462957", "arrversion": "1020432-43511", "arrcreated": "2019-01-28T00:00:00+01:00", "arrchanged": "2021-05-04T17:56:37+02:00", "arrname": "Miromesnil", "arrtype": "metro", "arrxepsg2154": 649732, "arryepsg2154": 6863959, "arrtown": "Paris 8e", "arrpostalregion": "75108", "arraccessibility": "false", "arraudiblesignals": "true", "arrvisualsigns": "true", "arrfarezone": "1", "zdaid": "43511", "arrgeopoint": {"lon": 2.3146768238242683, "lat": 48.87369210196551}},{"arrid": "462972", "arrversion": "1020827-999333", "arrcreated": "2019-01-28T00:00:00+01:00", "arrchanged": "2021-04-06T13:48:59+02:00", "arrname": "Saint-Lazare", "arrtype": "metro", "arrxepsg2154": 650420, "arryepsg2154": 6864172, "arrtown": "Paris 8e", "arrpostalregion": "75108", "arraccessibility": "true", "arraudiblesignals": "true", "arrvisualsigns": "true", "arrfarezone": "1", "zdaid": "462374", "arrgeopoint": {"lon": 2.324025896124678, "lat": 48.87566085465837}},{"arrid": "463045", "arrversion": "1219364-1187225", "arrcreated": "2019-01-28T00:00:00+01:00", "arrchanged": "2021-04-06T13:47:25+02:00", "arrname": "Olympiades", "arrtype": "metro", "arrxepsg2154": 653531, "arryepsg2154": 6858729, "arrtown": "Paris 13e", "arrpostalregion": "75113", "arraccessibility": "true", "arraudiblesignals": "true", "arrvisualsigns": "true", "arrfarezone": "1", "zdaid": "479056", "arrgeopoint": {"lon": 2.3670342709419234, "lat": 48.82694415502931}},{"arrid": "21954", "arrversion": "1022047-1187225", "arrcreated": "2014-12-29T00:00:00+01:00", "arrchanged": "2021-04-06T13:47:06+02:00", "arrname": "Olympiades", "arrtype": "metro", "arrxepsg2154": 653523, "arryepsg2154": 6858749, "arrtown": "Paris 13e", "arrpostalregion": "75113", "arraccessibility": "true", "arraudiblesignals": "true", "arrvisualsigns": "true", "arrfarezone": "1", "zdaid": "479056", "arrgeopoint": {"lon": 2.3669231215308075, "lat": 48.827123441415665}},{"arrid": "463064", "arrversion": "1219363-43898", "arrcreated": "2019-01-28T00:00:00+01:00", "arrchanged": "2021-04-06T13:46:25+02:00", "arrname": "Madeleine", "arrtype": "metro", "arrxepsg2154": 650550, "arryepsg2154": 6863611, "arrtown": "Paris 8e", "arrpostalregion": "75108", "arraccessibility": "true", "arraudiblesignals": "true", "arrvisualsigns": "true", "arrfarezone": "1", "zdaid": "43898", "arrgeopoint": {"lon": 2.3258757399808627, "lat": 48.8706304842145}},{"arrid": "21961", "arrversion": "1022559-43898", "arrcreated": "2014-12-29T00:00:00+01:00", "arrchanged": "2021-04-06T13:46:12+02:00", "arrname": "Madeleine", "arrtype": "metro", "arrxepsg2154": 650546, "arryepsg2154": 6863602, "arrtown": "Paris 8e", "arrpostalregion": "75108", "arraccessibility": "true", "arraudiblesignals": "true", "arrvisualsigns": "true", "arrfarezone": "1", "zdaid": "43898", "arrgeopoint": {"lon": 2.3258100487932776, "lat": 48.87054467670262}},{"arrid": "21956", "arrversion": "1024111-1035238", "arrcreated": "2014-12-29T00:00:00+01:00", "arrchanged": "2021-04-06T13:45:09+02:00", "arrname": "Cour Saint-Emilion", "arrtype": "metro", "arrxepsg2154": 654963, "arryepsg2154": 6859430, "arrtown": "Paris 12e", "arrpostalregion": "75112", "arraccessibility": "true", "arraudiblesignals": "true", "arrvisualsigns": "true", "arrfarezone": "1", "zdaid": "45234", "arrgeopoint": {"lon": 2.3864649093641885, "lat": 48.83334999723642}},{"arrid": "22024", "arrversion": "1533286-44587", "arrcreated": "2014-12-29T00:00:00+01:00", "arrchanged": "2024-01-17T12:51:45+01:00", "arrname": "Quatre Septembre", "arrtype": "metro", "arrxepsg2154": 651313, "arryepsg2154": 6863490, "arrtown": "Paris 2e", "arrpostalregion": "75102", "arraccessibility": "false", "arraudiblesignals": "true", "arrvisualsigns": "true", "arrfarezone": "1", "zdaid": "44587", "arrgeopoint": {"lon": 2.336278642324858, "lat": 48.869595921105535}},{"arrid": "22033", "arrversion": "1533276-1034783", "arrcreated": "2014-12-29T00:00:00+01:00", "arrchanged": "2024-01-17T12:50:54+01:00", "arrname": "Bourse", "arrtype": "metro", "arrxepsg2154": 651635, "arryepsg2154": 6863398, "arrtown": "Paris 2e", "arrpostalregion": "75102", "arraccessibility": "false", "arraudiblesignals": "true", "arrvisualsigns": "true", "arrfarezone": "1", "zdaid": "45101", "arrgeopoint": {"lon": 2.340678546975881, "lat": 48.86879284391953}},{"arrid": "483900", "arrversion": "1390431-1569389", "arrcreated": "2022-05-09T20:50:35+02:00", "arrchanged": "2023-11-22T18:44:28+01:00", "arrname": "Aim\u00e9 C\u00e9saire", "arrtype": "metro", "arrxepsg2154": 654417, "arryepsg2154": 6867784, "arrtown": "Aubervilliers", "arrpostalregion": "93001", "arraccessibility": "false", "arraudiblesignals": "true", "arrvisualsigns": "true", "arrfarezone": "2", "zdaid": "483901", "arrgeopoint": {"lon": 2.3781308451670595, "lat": 48.908437580656}},{"arrid": "412355", "arrversion": "1024428-45558", "arrcreated": "2015-02-12T00:00:00+01:00", "arrchanged": "2023-11-22T18:43:25+01:00", "arrname": "Funiculaire Gare haute", "arrtype": "metro", "arrxepsg2154": 651787, "arryepsg2154": 6865263, "arrtown": "Paris 18e", "arrpostalregion": "75118", "arraccessibility": "false", "arraudiblesignals": "false", "arrvisualsigns": "false", "arrfarezone": "1", "zdaid": "45558", "arrgeopoint": {"lon": 2.342538863675839, "lat": 48.88557568110428}},{"arrid": "463231", "arrversion": "1460196-1101343", "arrcreated": "2019-01-29T00:00:00+01:00", "arrchanged": "2023-03-28T13:24:23+02:00", "arrname": "Pont Marie (Cit\u00e9 des Arts)", "arrtype": "metro", "arrxepsg2154": 652850, "arryepsg2154": 6861691, "arrtown": "Paris 4e", "arrpostalregion": "75104", "arraccessibility": "false", "arraudiblesignals": "true", "arrvisualsigns": "true", "arrfarezone": "1", "zdaid": "44487", "arrgeopoint": {"lon": 2.357430292176306, "lat": 48.85353209664948}},{"arrid": "463309", "arrversion": "1460181-1348038", "arrcreated": "2019-01-29T00:00:00+01:00", "arrchanged": "2023-03-28T13:22:22+02:00", "arrname": "Saint-S\u00e9bastien - Froissart", "arrtype": "metro", "arrxepsg2154": 653568, "arryepsg2154": 6862510, "arrtown": "Paris 3e", "arrpostalregion": "75103", "arraccessibility": "false", "arraudiblesignals": "true", "arrvisualsigns": "true", "arrfarezone": "1", "zdaid": "45208", "arrgeopoint": {"lon": 2.367125462615118, "lat": 48.860949439266236}},{"arrid": "463048", "arrversion": "1460176-58727", "arrcreated": "2019-01-28T00:00:00+01:00", "arrchanged": "2023-03-28T13:21:49+02:00", "arrname": "Filles du Calvaire", "arrtype": "metro", "arrxepsg2154": 653531, "arryepsg2154": 6862743, "arrtown": "Paris 3e", "arrpostalregion": "75103", "arraccessibility": "false", "arraudiblesignals": "true", "arrvisualsigns": "true", "arrfarezone": "1", "zdaid": "58727", "arrgeopoint": {"lon": 2.3665956945709343, "lat": 48.863042111403736}},{"arrid": "22081", "arrversion": "1458846-1347826", "arrcreated": "2014-12-29T00:00:00+01:00", "arrchanged": "2023-03-28T08:27:22+02:00", "arrname": "Louvre - Rivoli", "arrtype": "metro", "arrxepsg2154": 651644, "arryepsg2154": 6862507, "arrtown": "Paris 1er", "arrpostalregion": "75101", "arraccessibility": "false", "arraudiblesignals": "true", "arrvisualsigns": "true", "arrfarezone": "1", "zdaid": "44645", "arrgeopoint": {"lon": 2.3409026134809903, "lat": 48.86078090877333}},{"arrid": "22128", "arrversion": "1458819-1026966", "arrcreated": "2014-12-29T00:00:00+01:00", "arrchanged": "2023-03-28T08:20:47+02:00", "arrname": "Belleville", "arrtype": "metro", "arrxepsg2154": 654290, "arryepsg2154": 6863768, "arrtown": "Paris 19e", "arrpostalregion": "75119", "arraccessibility": "false", "arraudiblesignals": "true", "arrvisualsigns": "true", "arrfarezone": "1", "zdaid": "42311", "arrgeopoint": {"lon": 2.3768306915222843, "lat": 48.87231407734804}},{"arrid": "22108", "arrversion": "1396904-44931", "arrcreated": "2014-12-29T00:00:00+01:00", "arrchanged": "2022-05-31T16:26:42+02:00", "arrname": "Ternes", "arrtype": "metro", "arrxepsg2154": 648522, "arryepsg2154": 6864471, "arrtown": "Paris 17e", "arrpostalregion": "75117", "arraccessibility": "false", "arraudiblesignals": "true", "arrvisualsigns": "true", "arrfarezone": "1", "zdaid": "44931", "arrgeopoint": {"lon": 2.2981136521983063, "lat": 48.87820075281468}},{"arrid": "22210", "arrversion": "1332152-1332151", "arrcreated": "2014-12-29T00:00:00+01:00", "arrchanged": "2021-10-04T14:59:51+02:00", "arrname": "Charenton - \u00c9coles", "arrtype": "metro", "arrxepsg2154": 656963, "arryepsg2154": 6858070, "arrtown": "Charenton-le-Pont", "arrpostalregion": "94018", "arraccessibility": "false", "arraudiblesignals": "true", "arrvisualsigns": "true", "arrfarezone": "2", "zdaid": "42545", "arrgeopoint": {"lon": 2.413847237068526, "lat": 48.82125590203579}},{"arrid": "463137", "arrversion": "1332095-1034776", "arrcreated": "2019-01-29T00:00:00+01:00", "arrchanged": "2021-10-04T14:43:13+02:00", "arrname": "Boulogne Jean Jaur\u00e8s", "arrtype": "metro", "arrxepsg2154": 644153, "arryepsg2154": 6860485, "arrtown": "Boulogne-Billancourt", "arrpostalregion": "92012", "arraccessibility": "false", "arraudiblesignals": "true", "arrvisualsigns": "true", "arrfarezone": "2", "zdaid": "42380", "arrgeopoint": {"lon": 2.2390777807289255, "lat": 48.84199157531081}},{"arrid": "463124", "arrversion": "1332065-1026843", "arrcreated": "2019-01-29T00:00:00+01:00", "arrchanged": "2021-10-04T14:26:53+02:00", "arrname": "Avenue \u00c9mile Zola", "arrtype": "metro", "arrxepsg2154": 648264, "arryepsg2154": 6861008, "arrtown": "Paris 15e", "arrpostalregion": "75115", "arraccessibility": "false", "arraudiblesignals": "true", "arrvisualsigns": "true", "arrfarezone": "1", "zdaid": "42265", "arrgeopoint": {"lon": 2.29501899714355, "lat": 48.84703801369148}},{"arrid": "26602", "arrversion": "1361974-45904", "arrcreated": "2014-12-29T00:00:00+01:00", "arrchanged": "2021-12-14T14:30:38+01:00", "arrname": "Mairie de Montrouge", "arrtype": "metro", "arrxepsg2154": 650035, "arryepsg2154": 6857816, "arrtown": "Montrouge", "arrpostalregion": "92049", "arraccessibility": "false", "arraudiblesignals": "true", "arrvisualsigns": "true", "arrfarezone": "2", "zdaid": "45904", "arrgeopoint": {"lon": 2.319523835754741, "lat": 48.81847190005992}},{"arrid": "22119", "arrversion": "1351597-43524", "arrcreated": "2014-12-29T00:00:00+01:00", "arrchanged": "2021-11-12T15:58:06+01:00", "arrname": "La Chapelle", "arrtype": "metro", "arrxepsg2154": 653096, "arryepsg2154": 6865120, "arrtown": "Paris 10e", "arrpostalregion": "75110", "arraccessibility": "false", "arraudiblesignals": "true", "arrvisualsigns": "true", "arrfarezone": "1", "zdaid": "43524", "arrgeopoint": {"lon": 2.3604041692740982, "lat": 48.88438641083919}},{"arrid": "463325", "arrversion": "1348070-45065", "arrcreated": "2019-01-29T00:00:00+01:00", "arrchanged": "2021-10-27T14:44:15+02:00", "arrname": "Voltaire", "arrtype": "metro", "arrxepsg2154": 654512, "arryepsg2154": 6862137, "arrtown": "Paris 11e", "arrpostalregion": "75111", "arraccessibility": "false", "arraudiblesignals": "true", "arrvisualsigns": "true", "arrfarezone": "1", "zdaid": "45065", "arrgeopoint": {"lon": 2.3800316941488044, "lat": 48.857662434372344}},{"arrid": "22400", "arrversion": "1348068-1348067", "arrcreated": "2014-12-29T00:00:00+01:00", "arrchanged": "2021-10-27T14:43:34+02:00", "arrname": "Villejuif - Louis Aragon", "arrtype": "metro", "arrxepsg2154": 653555, "arryepsg2154": 6854347, "arrtown": "Villejuif", "arrpostalregion": "94076", "arraccessibility": "false", "arraudiblesignals": "true", "arrvisualsigns": "true", "arrfarezone": "2", "zdaid": "45049", "arrgeopoint": {"lon": 2.36783901176962, "lat": 48.78753717098506}},{"arrid": "463269", "arrversion": "1348065-1348067", "arrcreated": "2019-01-29T00:00:00+01:00", "arrchanged": "2021-10-27T14:43:14+02:00", "arrname": "Villejuif - Louis Aragon", "arrtype": "metro", "arrxepsg2154": 653546, "arryepsg2154": 6854351, "arrtown": "Villejuif", "arrpostalregion": "94076", "arraccessibility": "false", "arraudiblesignals": "true", "arrvisualsigns": "true", "arrfarezone": "2", "zdaid": "45049", "arrgeopoint": {"lon": 2.3677168990538426, "lat": 48.78757250111895}},{"arrid": "463264", "arrversion": "1348046-1348042", "arrcreated": "2019-01-29T00:00:00+01:00", "arrchanged": "2021-10-27T14:33:54+02:00", "arrname": "Strasbourg - Saint-Denis", "arrtype": "metro", "arrxepsg2154": 652599, "arryepsg2154": 6863469, "arrtown": "Paris 10e", "arrpostalregion": "75110", "arraccessibility": "false", "arraudiblesignals": "true", "arrvisualsigns": "true", "arrfarezone": "1", "zdaid": "44909", "arrgeopoint": {"lon": 2.353822382009361, "lat": 48.86950305728901}},{"arrid": "21908", "arrversion": "1348019-44461", "arrcreated": "2014-12-29T00:00:00+01:00", "arrchanged": "2021-10-27T14:27:04+02:00", "arrname": "Rue de la Pompe", "arrtype": "metro", "arrxepsg2154": 647024, "arryepsg2154": 6862900, "arrtown": "Paris 16e", "arrpostalregion": "75116", "arraccessibility": "false", "arraudiblesignals": "true", "arrvisualsigns": "true", "arrfarezone": "1", "zdaid": "44461", "arrgeopoint": {"lon": 2.277885897959056, "lat": 48.86395170886628}},{"arrid": "463036", "arrversion": "1348018-1348015", "arrcreated": "2019-01-28T00:00:00+01:00", "arrchanged": "2021-10-27T14:26:21+02:00", "arrname": "Richelieu - Drouot", "arrtype": "metro", "arrxepsg2154": 651486, "arryepsg2154": 6863782, "arrtown": "Paris 9e", "arrpostalregion": "75109", "arraccessibility": "false", "arraudiblesignals": "true", "arrvisualsigns": "true", "arrfarezone": "1", "zdaid": "44642", "arrgeopoint": {"lon": 2.33861635532281, "lat": 48.87223943325673}},{"arrid": "463293", "arrversion": "1348008-1348006", "arrcreated": "2019-01-29T00:00:00+01:00", "arrchanged": "2021-10-27T14:23:28+02:00", "arrname": "Reuilly - Diderot", "arrtype": "metro", "arrxepsg2154": 655011, "arryepsg2154": 6860958, "arrtown": "Paris 12e", "arrpostalregion": "75112", "arraccessibility": "false", "arraudiblesignals": "true", "arrvisualsigns": "true", "arrfarezone": "1", "zdaid": "44637", "arrgeopoint": {"lon": 2.3869585404965377, "lat": 48.847094767955774}},{"arrid": "22098", "arrversion": "1348007-1348006", "arrcreated": "2014-12-29T00:00:00+01:00", "arrchanged": "2021-10-27T14:23:22+02:00", "arrname": "Reuilly - Diderot", "arrtype": "metro", "arrxepsg2154": 655029, "arryepsg2154": 6860971, "arrtown": "Paris 12e", "arrpostalregion": "75112", "arraccessibility": "false", "arraudiblesignals": "true", "arrvisualsigns": "true", "arrfarezone": "1", "zdaid": "44637", "arrgeopoint": {"lon": 2.3872010704093922, "lat": 48.847212926684286}},{"arrid": "22020", "arrversion": "1347986-44310", "arrcreated": "2014-12-29T00:00:00+01:00", "arrchanged": "2021-10-27T14:18:01+02:00", "arrname": "P\u00e8re Lachaise", "arrtype": "metro", "arrxepsg2154": 654966, "arryepsg2154": 6862723, "arrtown": "Paris 11e", "arrpostalregion": "75111", "arraccessibility": "false", "arraudiblesignals": "true", "arrvisualsigns": "true", "arrfarezone": "1", "zdaid": "44310", "arrgeopoint": {"lon": 2.3861570462983375, "lat": 48.86296417434053}},{"arrid": "463249", "arrversion": "1347985-1323693", "arrcreated": "2019-01-29T00:00:00+01:00", "arrchanged": "2021-10-27T14:16:27+02:00", "arrname": "Palais Royal - Mus\u00e9e du Louvre", "arrtype": "metro", "arrxepsg2154": 651365, "arryepsg2154": 6862730, "arrtown": "Paris 1er", "arrpostalregion": "75101", "arraccessibility": "false", "arraudiblesignals": "true", "arrvisualsigns": "true", "arrfarezone": "1", "zdaid": "44236", "arrgeopoint": {"lon": 2.3370872868854393, "lat": 48.86276538183049}},{"arrid": "22038", "arrversion": "1347968-1238298", "arrcreated": "2014-12-29T00:00:00+01:00", "arrchanged": "2021-10-27T14:10:54+02:00", "arrname": "Montparnasse Bienvenue", "arrtype": "metro", "arrxepsg2154": 650387, "arryepsg2154": 6860632, "arrtown": "Paris 15e", "arrpostalregion": "75115", "arraccessibility": "false", "arraudiblesignals": "true", "arrvisualsigns": "true", "arrfarezone": "1", "zdaid": "58578", "arrgeopoint": {"lon": 2.323989185205003, "lat": 48.84382361124077}},{"arrid": "462996", "arrversion": "1347967-1238298", "arrcreated": "2019-01-28T00:00:00+01:00", "arrchanged": "2021-10-27T14:10:38+02:00", "arrname": "Montparnasse Bienvenue", "arrtype": "metro", "arrxepsg2154": 650416, "arryepsg2154": 6860642, "arrtown": "Paris 6e", "arrpostalregion": "75106", "arraccessibility": "false", "arraudiblesignals": "true", "arrvisualsigns": "true", "arrfarezone": "1", "zdaid": "58578", "arrgeopoint": {"lon": 2.3243858698057784, "lat": 48.843915788581484}},{"arrid": "21923", "arrversion": "1347965-44139", "arrcreated": "2014-12-29T00:00:00+01:00", "arrchanged": "2021-10-27T14:09:41+02:00", "arrname": "Michel-Ange - Molitor", "arrtype": "metro", "arrxepsg2154": 645803, "arryepsg2154": 6860794, "arrtown": "Paris 16e", "arrpostalregion": "75116", "arraccessibility": "false", "arraudiblesignals": "true", "arrvisualsigns": "true", "arrfarezone": "1", "zdaid": "44139", "arrgeopoint": {"lon": 2.2615119169052047, "lat": 48.84491122754959}},{"arrid": "21907", "arrversion": "1347961-44138", "arrcreated": "2014-12-29T00:00:00+01:00", "arrchanged": "2021-10-27T14:08:35+02:00", "arrname": "Michel-Ange - Auteuil", "arrtype": "metro", "arrxepsg2154": 645988, "arryepsg2154": 6861133, "arrtown": "Paris 16e", "arrpostalregion": "75116", "arraccessibility": "false", "arraudiblesignals": "true", "arrvisualsigns": "true", "arrfarezone": "1", "zdaid": "44138", "arrgeopoint": {"lon": 2.263989525333329, "lat": 48.847975354162585}},{"arrid": "463237", "arrversion": "1347958-1347960", "arrcreated": "2019-01-29T00:00:00+01:00", "arrchanged": "2021-10-27T14:06:54+02:00", "arrname": "Maubert - Mutualit\u00e9", "arrtype": "metro", "arrxepsg2154": 652175, "arryepsg2154": 6861325, "arrtown": "Paris 5e", "arrpostalregion": "75105", "arraccessibility": "false", "arraudiblesignals": "true", "arrvisualsigns": "true", "arrfarezone": "1", "zdaid": "44119", "arrgeopoint": {"lon": 2.348280413169489, "lat": 48.85019546605582}},{"arrid": "462973", "arrversion": "1347953-1347950", "arrcreated": "2019-01-28T00:00:00+01:00", "arrchanged": "2021-10-27T14:03:27+02:00", "arrname": "Marcadet - Poissonniers", "arrtype": "metro", "arrxepsg2154": 652341, "arryepsg2154": 6865922, "arrtown": "Paris 18e", "arrpostalregion": "75118", "arraccessibility": "false", "arraudiblesignals": "true", "arrvisualsigns": "true", "arrfarezone": "1", "zdaid": "44075", "arrgeopoint": {"lon": 2.350024621807015, "lat": 48.891547602840696}},{"arrid": "22052", "arrversion": "1347951-1347950", "arrcreated": "2014-12-29T00:00:00+01:00", "arrchanged": "2021-10-27T14:03:11+02:00", "arrname": "Marcadet - Poissonniers", "arrtype": "metro", "arrxepsg2154": 652338, "arryepsg2154": 6865912, "arrtown": "Paris 18e", "arrpostalregion": "75118", "arraccessibility": "false", "arraudiblesignals": "true", "arrvisualsigns": "true", "arrfarezone": "1", "zdaid": "44075", "arrgeopoint": {"lon": 2.349979432978202, "lat": 48.891452928641094}},{"arrid": "463202", "arrversion": "1347790-1347784", "arrcreated": "2019-01-29T00:00:00+01:00", "arrchanged": "2021-10-26T17:36:23+02:00", "arrname": "La Motte-Picquet - Grenelle", "arrtype": "metro", "arrxepsg2154": 648535, "arryepsg2154": 6861283, "arrtown": "Paris 15e", "arrpostalregion": "75115", "arraccessibility": "false", "arraudiblesignals": "true", "arrvisualsigns": "true", "arrfarezone": "1", "zdaid": "43566", "arrgeopoint": {"lon": 2.298684579816939, "lat": 48.84953280584342}},{"arrid": "22183", "arrversion": "1347787-1347784", "arrcreated": "2014-12-29T00:00:00+01:00", "arrchanged": "2021-10-26T17:35:29+02:00", "arrname": "La Motte-Picquet - Grenelle", "arrtype": "metro", "arrxepsg2154": 648540, "arryepsg2154": 6861280, "arrtown": "Paris 15e", "arrpostalregion": "75115", "arraccessibility": "false", "arraudiblesignals": "true", "arrvisualsigns": "true", "arrfarezone": "1", "zdaid": "43566", "arrgeopoint": {"lon": 2.298745444388579, "lat": 48.84950618173288}},{"arrid": "463191", "arrversion": "1347742-43417", "arrcreated": "2019-01-29T00:00:00+01:00", "arrchanged": "2021-10-26T17:19:28+02:00", "arrname": "Jacques Bonsergent", "arrtype": "metro", "arrxepsg2154": 653129, "arryepsg2154": 6863589, "arrtown": "Paris 10e", "arrpostalregion": "75110", "arraccessibility": "false", "arraudiblesignals": "true", "arrvisualsigns": "true", "arrfarezone": "1", "zdaid": "43417", "arrgeopoint": {"lon": 2.3610239020489225, "lat": 48.870620926251675}},{"arrid": "463022", "arrversion": "1347736-43138", "arrcreated": "2019-01-28T00:00:00+01:00", "arrchanged": "2021-10-26T16:54:54+02:00", "arrname": "Gare de l'Est", "arrtype": "metro", "arrxepsg2154": 652904, "arryepsg2154": 6864220, "arrtown": "Paris 10e", "arrpostalregion": "75110", "arraccessibility": "false", "arraudiblesignals": "true", "arrvisualsigns": "true", "arrfarezone": "1", "zdaid": "43138", "arrgeopoint": {"lon": 2.357898132104305, "lat": 48.87628351187116}},{"arrid": "463021", "arrversion": "1347735-43138", "arrcreated": "2019-01-28T00:00:00+01:00", "arrchanged": "2021-10-26T16:54:07+02:00", "arrname": "Gare de l'Est", "arrtype": "metro", "arrxepsg2154": 652910, "arryepsg2154": 6864198, "arrtown": "Paris 10e", "arrpostalregion": "75110", "arraccessibility": "false", "arraudiblesignals": "true", "arrvisualsigns": "true", "arrfarezone": "1", "zdaid": "43138", "arrgeopoint": {"lon": 2.357982972943156, "lat": 48.87608161660364}},{"arrid": "463001", "arrversion": "1347734-43138", "arrcreated": "2019-01-28T00:00:00+01:00", "arrchanged": "2021-10-26T16:53:53+02:00", "arrname": "Gare de l'Est", "arrtype": "metro", "arrxepsg2154": 652921, "arryepsg2154": 6864219, "arrtown": "Paris 10e", "arrpostalregion": "75110", "arraccessibility": "false", "arraudiblesignals": "true", "arrvisualsigns": "true", "arrfarezone": "1", "zdaid": "43138", "arrgeopoint": {"lon": 2.358120525273069, "lat": 48.876271214528}},{"arrid": "22013", "arrversion": "1347731-43138", "arrcreated": "2014-12-29T00:00:00+01:00", "arrchanged": "2021-10-26T16:53:15+02:00", "arrname": "Gare de l'Est", "arrtype": "metro", "arrxepsg2154": 652917, "arryepsg2154": 6864207, "arrtown": "Paris 10e", "arrpostalregion": "75110", "arraccessibility": "false", "arraudiblesignals": "true", "arrvisualsigns": "true", "arrfarezone": "1", "zdaid": "43138", "arrgeopoint": {"lon": 2.3580645944186496, "lat": 48.876162994452805}},{"arrid": "463172", "arrversion": "1347714-1347715", "arrcreated": "2019-01-29T00:00:00+01:00", "arrchanged": "2021-10-26T16:41:37+02:00", "arrname": "Faidherbe - Chaligny", "arrtype": "metro", "arrxepsg2154": 654798, "arryepsg2154": 6861295, "arrtown": "Paris 12e", "arrpostalregion": "75112", "arraccessibility": "false", "arraudiblesignals": "true", "arrvisualsigns": "true", "arrfarezone": "1", "zdaid": "42980", "arrgeopoint": {"lon": 2.3840285663831073, "lat": 48.850110544120014}},{"arrid": "22016", "arrversion": "1347705-42949", "arrcreated": "2014-12-29T00:00:00+01:00", "arrchanged": "2021-10-26T16:38:01+02:00", "arrname": "\u00c9glise de Pantin", "arrtype": "metro", "arrxepsg2154": 656969, "arryepsg2154": 6866066, "arrtown": "Pantin", "arrpostalregion": "93055", "arraccessibility": "false", "arraudiblesignals": "true", "arrvisualsigns": "true", "arrfarezone": "2", "zdaid": "42949", "arrgeopoint": {"lon": 2.4131195537069345, "lat": 48.89316397408468}},{"arrid": "463177", "arrversion": "1347698-1347696", "arrcreated": "2019-01-29T00:00:00+01:00", "arrchanged": "2021-10-26T16:34:21+02:00", "arrname": "\u00c9cole Militaire", "arrtype": "metro", "arrxepsg2154": 649109, "arryepsg2154": 6861870, "arrtown": "Paris 7e", "arrpostalregion": "75107", "arraccessibility": "false", "arraudiblesignals": "true", "arrvisualsigns": "true", "arrfarezone": "1", "zdaid": "42885", "arrgeopoint": {"lon": 2.3064410394306907, "lat": 48.854861755108644}},{"arrid": "463145", "arrversion": "1347677-1034979", "arrcreated": "2019-01-29T00:00:00+01:00", "arrchanged": "2021-10-26T16:22:56+02:00", "arrname": "Chauss\u00e9e d'Antin - La Fayette", "arrtype": "metro", "arrxepsg2154": 651125, "arryepsg2154": 6863892, "arrtown": "Paris 9e", "arrpostalregion": "75109", "arraccessibility": "false", "arraudiblesignals": "true", "arrvisualsigns": "true", "arrfarezone": "1", "zdaid": "42589", "arrgeopoint": {"lon": 2.3336695681124127, "lat": 48.8732012719989}},{"arrid": "22388", "arrversion": "1347675-1034979", "arrcreated": "2014-12-29T00:00:00+01:00", "arrchanged": "2021-10-26T16:22:41+02:00", "arrname": "Chauss\u00e9e d'Antin - La Fayette", "arrtype": "metro", "arrxepsg2154": 651130, "arryepsg2154": 6863885, "arrtown": "Paris 9e", "arrpostalregion": "75109", "arraccessibility": "false", "arraudiblesignals": "true", "arrvisualsigns": "true", "arrfarezone": "1", "zdaid": "42589", "arrgeopoint": {"lon": 2.3337385944087012, "lat": 48.87313420576106}},{"arrid": "22140", "arrversion": "1346945-1346947", "arrcreated": "2014-12-29T00:00:00+01:00", "arrchanged": "2021-10-25T12:55:42+02:00", "arrname": "Porte d'Orl\u00e9ans", "arrtype": "metro", "arrxepsg2154": 650478, "arryepsg2154": 6858362, "arrtown": "Paris 14e", "arrpostalregion": "75114", "arraccessibility": "false", "arraudiblesignals": "true", "arrvisualsigns": "true", "arrfarezone": "1", "zdaid": "44508", "arrgeopoint": {"lon": 2.325493265382104, "lat": 48.823416351126475}},{"arrid": "463198", "arrversion": "1346713-43407", "arrcreated": "2019-01-29T00:00:00+01:00", "arrchanged": "2021-10-22T19:29:43+02:00", "arrname": "Invalides", "arrtype": "metro", "arrxepsg2154": 649710, "arryepsg2154": 6862531, "arrtown": "Paris 7e", "arrpostalregion": "75107", "arraccessibility": "false", "arraudiblesignals": "true", "arrvisualsigns": "true", "arrfarezone": "1", "zdaid": "43407", "arrgeopoint": {"lon": 2.3145404484362686, "lat": 48.86084865839407}},{"arrid": "463031", "arrversion": "1306811-1306809", "arrcreated": "2019-01-28T00:00:00+01:00", "arrchanged": "2021-07-26T14:21:38+02:00", "arrname": "Aubervilliers-Pantin Quatre Chemins", "arrtype": "metro", "arrxepsg2154": 655445, "arryepsg2154": 6867255, "arrtown": "Pantin", "arrpostalregion": "93055", "arraccessibility": "false", "arraudiblesignals": "true", "arrvisualsigns": "true", "arrfarezone": "2", "zdaid": "46492", "arrgeopoint": {"lon": 2.392220571229219, "lat": 48.90375706035199}},{"arrid": "463298", "arrversion": "1273551-846468", "arrcreated": "2019-01-29T00:00:00+01:00", "arrchanged": "2021-05-26T11:51:23+02:00", "arrname": "Rue des Boulets", "arrtype": "metro", "arrxepsg2154": 655197, "arryepsg2154": 6861543, "arrtown": "Paris 11e", "arrpostalregion": "75111", "arraccessibility": "false", "arraudiblesignals": "true", "arrvisualsigns": "true", "arrfarezone": "1", "zdaid": "425987", "arrgeopoint": {"lon": 2.389429968854563, "lat": 48.85236862326589}},{"arrid": "22008", "arrversion": "1023600-1037764", "arrcreated": "2014-12-29T00:00:00+01:00", "arrchanged": "2021-05-04T17:56:37+02:00", "arrname": "Br\u00e9guet-Sabin", "arrtype": "metro", "arrxepsg2154": 653789, "arryepsg2154": 6861985, "arrtown": "Paris 11e", "arrpostalregion": "75111", "arraccessibility": "false", "arraudiblesignals": "true", "arrvisualsigns": "true", "arrfarezone": "1", "zdaid": "42390", "arrgeopoint": {"lon": 2.3701946685897517, "lat": 48.85624405467265}},{"arrid": "22001", "arrversion": "1021770-44901", "arrcreated": "2014-12-29T00:00:00+01:00", "arrchanged": "2021-05-04T17:56:37+02:00", "arrname": "Stalingrad", "arrtype": "metro", "arrxepsg2154": 653605, "arryepsg2154": 6865089, "arrtown": "Paris 10e", "arrpostalregion": "75110", "arraccessibility": "false", "arraudiblesignals": "true", "arrvisualsigns": "true", "arrfarezone": "1", "zdaid": "44901", "arrgeopoint": {"lon": 2.367348121277192, "lat": 48.8841445128813}},{"arrid": "22113", "arrversion": "1025367-44332", "arrcreated": "2014-12-29T00:00:00+01:00", "arrchanged": "2021-05-04T17:56:37+02:00", "arrname": "Philippe Auguste", "arrtype": "metro", "arrxepsg2154": 655284, "arryepsg2154": 6862188, "arrtown": "Paris 20e", "arrpostalregion": "75120", "arraccessibility": "false", "arraudiblesignals": "true", "arrvisualsigns": "true", "arrfarezone": "1", "zdaid": "44332", "arrgeopoint": {"lon": 2.3905477055525735, "lat": 48.8581751212472}},{"arrid": "22115", "arrversion": "1025397-44372", "arrcreated": "2014-12-29T00:00:00+01:00", "arrchanged": "2021-05-04T17:56:37+02:00", "arrname": "Place de Clichy", "arrtype": "metro", "arrxepsg2154": 650716, "arryepsg2154": 6865060, "arrtown": "Paris 18e", "arrpostalregion": "75118", "arraccessibility": "false", "arraudiblesignals": "true", "arrvisualsigns": "true", "arrfarezone": "1", "zdaid": "44372", "arrgeopoint": {"lon": 2.3279583280102196, "lat": 48.88366908825906}},{"arrid": "22116", "arrversion": "1025199-44133", "arrcreated": "2014-12-29T00:00:00+01:00", "arrchanged": "2021-05-04T17:56:37+02:00", "arrname": "M\u00e9nilmontant", "arrtype": "metro", "arrxepsg2154": 654777, "arryepsg2154": 6863111, "arrtown": "Paris 20e", "arrpostalregion": "75120", "arraccessibility": "false", "arraudiblesignals": "true", "arrvisualsigns": "true", "arrfarezone": "1", "zdaid": "44133", "arrgeopoint": {"lon": 2.3835396687794894, "lat": 48.866440166768044}},{"arrid": "22121", "arrversion": "1024164-1035251", "arrcreated": "2014-12-29T00:00:00+01:00", "arrchanged": "2021-05-04T17:56:37+02:00", "arrname": "Courcelles", "arrtype": "metro", "arrxepsg2154": 648903, "arryepsg2154": 6864586, "arrtown": "Paris 17e", "arrpostalregion": "75117", "arraccessibility": "false", "arraudiblesignals": "true", "arrvisualsigns": "true", "arrfarezone": "1", "zdaid": "42771", "arrgeopoint": {"lon": 2.303294362425212, "lat": 48.879265254099494}},{"arrid": "22120", "arrversion": "1021099-1035155", "arrcreated": "2014-12-29T00:00:00+01:00", "arrchanged": "2021-05-04T17:56:37+02:00", "arrname": "Colonel Fabien", "arrtype": "metro", "arrxepsg2154": 653836, "arryepsg2154": 6864370, "arrtown": "Paris 10e", "arrpostalregion": "75110", "arraccessibility": "false", "arraudiblesignals": "true", "arrvisualsigns": "true", "arrfarezone": "1", "zdaid": "42732", "arrgeopoint": {"lon": 2.3705761028196575, "lat": 48.87769534579191}},{"arrid": "22104", "arrversion": "1023808-1035065", "arrcreated": "2014-12-29T00:00:00+01:00", "arrchanged": "2021-05-04T17:56:37+02:00", "arrname": "Ch\u00e2teau de Vincennes", "arrtype": "metro", "arrxepsg2154": 658941, "arryepsg2154": 6860620, "arrtown": "Paris 12e", "arrpostalregion": "75112", "arraccessibility": "false", "arraudiblesignals": "true", "arrvisualsigns": "true", "arrfarezone": "2", "zdaid": "42582", "arrgeopoint": {"lon": 2.4405400954061136, "lat": 48.84431751429987}},{"arrid": "22078", "arrversion": "1025470-44533", "arrcreated": "2014-12-29T00:00:00+01:00", "arrchanged": "2021-05-04T17:56:37+02:00", "arrname": "Porte Maillot", "arrtype": "metro", "arrxepsg2154": 647383, "arryepsg2154": 6864477, "arrtown": "Paris 17e", "arrpostalregion": "75117", "arraccessibility": "false", "arraudiblesignals": "true", "arrvisualsigns": "true", "arrfarezone": "1", "zdaid": "44533", "arrgeopoint": {"lon": 2.282583847361549, "lat": 48.878162653630916}},{"arrid": "22073", "arrversion": "1021634-1641340", "arrcreated": "2014-12-29T00:00:00+01:00", "arrchanged": "2021-05-04T17:56:37+02:00", "arrname": "Nation", "arrtype": "metro", "arrxepsg2154": 655665, "arryepsg2154": 6861042, "arrtown": "Paris 12e", "arrpostalregion": "75112", "arraccessibility": "false", "arraudiblesignals": "true", "arrvisualsigns": "true", "arrfarezone": "1", "zdaid": "462358", "arrgeopoint": {"lon": 2.395859804327908, "lat": 48.84789550544393}},{"arrid": "22083", "arrversion": "1024440-1641339", "arrcreated": "2014-12-29T00:00:00+01:00", "arrchanged": "2021-05-04T17:56:37+02:00", "arrname": "Gare de Lyon", "arrtype": "metro", "arrxepsg2154": 653997, "arryepsg2154": 6860809, "arrtown": "Paris 12e", "arrpostalregion": "75112", "arraccessibility": "false", "arraudiblesignals": "true", "arrvisualsigns": "true", "arrfarezone": "1", "zdaid": "43153", "arrgeopoint": {"lon": 2.3731565937892043, "lat": 48.84568320672211}},{"arrid": "22057", "arrversion": "1024070-1035205", "arrcreated": "2014-12-29T00:00:00+01:00", "arrchanged": "2021-05-04T17:56:37+02:00", "arrname": "Concorde", "arrtype": "metro", "arrxepsg2154": 650349, "arryepsg2154": 6863115, "arrtown": "Paris 8e", "arrpostalregion": "75108", "arraccessibility": "false", "arraudiblesignals": "true", "arrvisualsigns": "true", "arrfarezone": "1", "zdaid": "45676", "arrgeopoint": {"lon": 2.323181449571859, "lat": 48.8661500348123}},{"arrid": "22034", "arrversion": "1024907-51613", "arrcreated": "2014-12-29T00:00:00+01:00", "arrchanged": "2021-05-04T17:56:37+02:00", "arrname": "Louise Michel", "arrtype": "metro", "arrxepsg2154": 647811, "arryepsg2154": 6865627, "arrtown": "Levallois-Perret", "arrpostalregion": "92044", "arraccessibility": "false", "arraudiblesignals": "true", "arrvisualsigns": "true", "arrfarezone": "2", "zdaid": "51613", "arrgeopoint": {"lon": 2.2882778490679763, "lat": 48.88853900118254}},{"arrid": "22017", "arrversion": "1021326-43364", "arrcreated": "2014-12-29T00:00:00+01:00", "arrchanged": "2021-05-04T17:56:37+02:00", "arrname": "Hoche", "arrtype": "metro", "arrxepsg2154": 656241, "arryepsg2154": 6865863, "arrtown": "Pantin", "arrpostalregion": "93055", "arraccessibility": "false", "arraudiblesignals": "true", "arrvisualsigns": "true", "arrfarezone": "2", "zdaid": "43364", "arrgeopoint": {"lon": 2.4032119887626737, "lat": 48.89128939385119}},{"arrid": "22022", "arrversion": "1025582-44510", "arrcreated": "2014-12-29T00:00:00+01:00", "arrchanged": "2021-05-04T17:56:37+02:00", "arrname": "Porte de Bagnolet", "arrtype": "metro", "arrxepsg2154": 656630, "arryepsg2154": 6862862, "arrtown": "Paris 20e", "arrpostalregion": "75120", "arraccessibility": "false", "arraudiblesignals": "true", "arrvisualsigns": "true", "arrfarezone": "1", "zdaid": "44510", "arrgeopoint": {"lon": 2.408823409080245, "lat": 48.864328369858285}},{"arrid": "24687", "arrversion": "1021856-1035348", "arrcreated": "2014-12-29T00:00:00+01:00", "arrchanged": "2021-05-04T17:56:37+02:00", "arrname": "Danube", "arrtype": "metro", "arrxepsg2154": 655501, "arryepsg2154": 6864830, "arrtown": "Paris 19e", "arrpostalregion": "75119", "arraccessibility": "false", "arraudiblesignals": "true", "arrvisualsigns": "true", "arrfarezone": "1", "zdaid": "42822", "arrgeopoint": {"lon": 2.3932284712274914, "lat": 48.881949214907024}},{"arrid": "24686", "arrversion": "1023535-1034610", "arrcreated": "2014-12-29T00:00:00+01:00", "arrchanged": "2021-05-04T17:56:37+02:00", "arrname": "Botzaris", "arrtype": "metro", "arrxepsg2154": 655182, "arryepsg2154": 6864553, "arrtown": "Paris 19e", "arrpostalregion": "75119", "arraccessibility": "false", "arraudiblesignals": "true", "arrvisualsigns": "true", "arrfarezone": "1", "zdaid": "42369", "arrgeopoint": {"lon": 2.3889081111850454, "lat": 48.87943610158756}},{"arrid": "22029", "arrversion": "1021131-44825", "arrcreated": "2014-12-29T00:00:00+01:00", "arrchanged": "2021-05-04T17:56:37+02:00", "arrname": "Sentier", "arrtype": "metro", "arrxepsg2154": 652138, "arryepsg2154": 6863233, "arrtown": "Paris 2e", "arrpostalregion": "75102", "arraccessibility": "false", "arraudiblesignals": "true", "arrvisualsigns": "true", "arrfarezone": "1", "zdaid": "44825", "arrgeopoint": {"lon": 2.347553815937788, "lat": 48.86734660428012}},{"arrid": "22021", "arrversion": "1025340-999021", "arrcreated": "2014-12-29T00:00:00+01:00", "arrchanged": "2021-05-04T17:56:37+02:00", "arrname": "Pereire", "arrtype": "metro", "arrxepsg2154": 648497, "arryepsg2154": 6865210, "arrtown": "Paris 17e", "arrpostalregion": "75117", "arraccessibility": "false", "arraudiblesignals": "true", "arrvisualsigns": "true", "arrfarezone": "1", "zdaid": "462376", "arrgeopoint": {"lon": 2.2976831860125833, "lat": 48.88484432272626}},{"arrid": "22231", "arrversion": "1020979-1034792", "arrcreated": "2014-12-29T00:00:00+01:00", "arrchanged": "2021-05-04T17:56:37+02:00", "arrname": "Brochant", "arrtype": "metro", "arrxepsg2154": 650153, "arryepsg2154": 6865838, "arrtown": "Paris 17e", "arrpostalregion": "75117", "arraccessibility": "false", "arraudiblesignals": "true", "arrvisualsigns": "true", "arrfarezone": "1", "zdaid": "45487", "arrgeopoint": {"lon": 2.320190246899945, "lat": 48.89062201553531}},{"arrid": "22243", "arrversion": "1024998-43969", "arrcreated": "2014-12-29T00:00:00+01:00", "arrchanged": "2021-05-04T17:56:37+02:00", "arrname": "Mairie de Saint-Ouen", "arrtype": "metro", "arrxepsg2154": 651170, "arryepsg2154": 6868209, "arrtown": "Saint-Ouen", "arrpostalregion": "93070", "arraccessibility": "false", "arraudiblesignals": "true", "arrvisualsigns": "true", "arrfarezone": "2", "zdaid": "43969", "arrgeopoint": {"lon": 2.33378654272862, "lat": 48.912021223811784}},{"arrid": "22229", "arrversion": "22229-42874", "arrcreated": "2014-12-29T15:31:51+01:00", "arrchanged": "2021-05-04T17:56:37+02:00", "arrname": "Duroc", "arrtype": "metro", "arrxepsg2154": 649842, "arryepsg2154": 6860991, "arrtown": "Paris 7e", "arrpostalregion": "75107", "arraccessibility": "false", "arraudiblesignals": "true", "arrvisualsigns": "true", "arrfarezone": "1", "zdaid": "42874", "arrgeopoint": {"lon": 2.3165212194565217, "lat": 48.84700989359829}},{"arrid": "22222", "arrversion": "1025354-44316", "arrcreated": "2014-12-29T00:00:00+01:00", "arrchanged": "2021-05-04T17:56:37+02:00", "arrname": "Pernety", "arrtype": "metro", "arrxepsg2154": 649967, "arryepsg2154": 6859552, "arrtown": "Paris 14e", "arrpostalregion": "75114", "arraccessibility": "false", "arraudiblesignals": "true", "arrvisualsigns": "true", "arrfarezone": "1", "zdaid": "44316", "arrgeopoint": {"lon": 2.3183937066147005, "lat": 48.834078679761255}},{"arrid": "22225", "arrversion": "1022591-43814", "arrcreated": "2014-12-29T00:00:00+01:00", "arrchanged": "2021-05-04T17:56:37+02:00", "arrname": "Li\u00e8ge", "arrtype": "metro", "arrxepsg2154": 650631, "arryepsg2154": 6864601, "arrtown": "Paris 8e", "arrpostalregion": "75108", "arraccessibility": "false", "arraudiblesignals": "true", "arrvisualsigns": "true", "arrfarezone": "1", "zdaid": "43814", "arrgeopoint": {"lon": 2.3268526712397555, "lat": 48.87953493736213}},{"arrid": "22206", "arrversion": "1025130-44140", "arrcreated": "2014-12-29T00:00:00+01:00", "arrchanged": "2021-05-04T17:56:37+02:00", "arrname": "Michel Bizot", "arrtype": "metro", "arrxepsg2154": 656127, "arryepsg2154": 6859827, "arrtown": "Paris 12e", "arrpostalregion": "75112", "arraccessibility": "false", "arraudiblesignals": "true", "arrvisualsigns": "true", "arrfarezone": "1", "zdaid": "44140", "arrgeopoint": {"lon": 2.4022804270646896, "lat": 48.837000553937266}},{"arrid": "22207", "arrversion": "1022239-44532", "arrcreated": "2014-12-29T00:00:00+01:00", "arrchanged": "2021-05-04T17:56:37+02:00", "arrname": "Porte Dor\u00e9e", "arrtype": "metro", "arrxepsg2154": 656380, "arryepsg2154": 6859610, "arrtown": "Paris 12e", "arrpostalregion": "75112", "arraccessibility": "false", "arraudiblesignals": "true", "arrvisualsigns": "true", "arrfarezone": "1", "zdaid": "44532", "arrgeopoint": {"lon": 2.4057493814000988, "lat": 48.83506622045188}},{"arrid": "22192", "arrversion": "1024770-1347791", "arrcreated": "2014-12-29T00:00:00+01:00", "arrchanged": "2021-05-04T17:56:37+02:00", "arrname": "La Tour-Maubourg", "arrtype": "metro", "arrxepsg2154": 649417, "arryepsg2154": 6862180, "arrtown": "Paris 7e", "arrpostalregion": "75107", "arraccessibility": "false", "arraudiblesignals": "true", "arrvisualsigns": "true", "arrfarezone": "1", "zdaid": "43409", "arrgeopoint": {"lon": 2.3105887898739867, "lat": 48.85766922955036}},{"arrid": "22195", "arrversion": "1025210-42237", "arrcreated": "2014-12-29T00:00:00+01:00", "arrchanged": "2021-05-04T17:56:37+02:00", "arrname": "Op\u00e9ra", "arrtype": "metro", "arrxepsg2154": 651010, "arryepsg2154": 6863604, "arrtown": "Paris 2e", "arrpostalregion": "75102", "arraccessibility": "false", "arraudiblesignals": "true", "arrvisualsigns": "true", "arrfarezone": "1", "zdaid": "42237", "arrgeopoint": {"lon": 2.3321350729252934, "lat": 48.87059812247306}},{"arrid": "22176", "arrversion": "1023629-1034768", "arrcreated": "2014-12-29T00:00:00+01:00", "arrchanged": "2021-05-04T17:56:37+02:00", "arrname": "Cambronne", "arrtype": "metro", "arrxepsg2154": 648846, "arryepsg2154": 6861059, "arrtown": "Paris 15e", "arrpostalregion": "75115", "arraccessibility": "false", "arraudiblesignals": "true", "arrvisualsigns": "true", "arrfarezone": "1", "zdaid": "42419", "arrgeopoint": {"lon": 2.3029417283376117, "lat": 48.84754311217983}},{"arrid": "22170", "arrversion": "1023038-43498", "arrcreated": "2014-12-29T00:00:00+01:00", "arrchanged": "2021-05-04T17:56:37+02:00", "arrname": "Kl\u00e9ber", "arrtype": "metro", "arrxepsg2154": 648151, "arryepsg2154": 6863728, "arrtown": "Paris 16e", "arrpostalregion": "75116", "arraccessibility": "false", "arraudiblesignals": "true", "arrvisualsigns": "true", "arrfarezone": "1", "zdaid": "43498", "arrgeopoint": {"lon": 2.293146137248626, "lat": 48.87148941292139}},{"arrid": "22182", "arrversion": "1022952-1035441", "arrcreated": "2014-12-29T00:00:00+01:00", "arrchanged": "2021-05-04T17:56:37+02:00", "arrname": "Dugommier", "arrtype": "metro", "arrxepsg2154": 655198, "arryepsg2154": 6860051, "arrtown": "Paris 12e", "arrpostalregion": "75112", "arraccessibility": "false", "arraudiblesignals": "true", "arrvisualsigns": "true", "arrfarezone": "1", "zdaid": "42869", "arrgeopoint": {"lon": 2.3896007705991944, "lat": 48.83895109403165}},{"arrid": "22186", "arrversion": "1022260-1026891", "arrcreated": "2014-12-29T00:00:00+01:00", "arrchanged": "2021-05-04T17:56:37+02:00", "arrname": "Balard", "arrtype": "metro", "arrxepsg2154": 647042, "arryepsg2154": 6859864, "arrtown": "Paris 15e", "arrpostalregion": "75115", "arraccessibility": "false", "arraudiblesignals": "true", "arrvisualsigns": "true", "arrfarezone": "1", "zdaid": "463354", "arrgeopoint": {"lon": 2.2785093588069993, "lat": 48.83665079227241}},{"arrid": "22155", "arrversion": "1025971-917064", "arrcreated": "2014-12-29T00:00:00+01:00", "arrchanged": "2021-05-04T17:56:37+02:00", "arrname": "Raspail", "arrtype": "metro", "arrxepsg2154": 650864, "arryepsg2154": 6860101, "arrtown": "Paris 14e", "arrpostalregion": "75114", "arraccessibility": "false", "arraudiblesignals": "true", "arrvisualsigns": "true", "arrfarezone": "1", "zdaid": "45314", "arrgeopoint": {"lon": 2.330549660589195, "lat": 48.83908487279756}},{"arrid": "22153", "arrversion": "1020985-1035031", "arrcreated": "2014-12-29T00:00:00+01:00", "arrchanged": "2021-05-04T17:56:37+02:00", "arrname": "Ch\u00e2teau d'Eau", "arrtype": "metro", "arrxepsg2154": 652766, "arryepsg2154": 6863795, "arrtown": "Paris 10e", "arrpostalregion": "75110", "arraccessibility": "false", "arraudiblesignals": "true", "arrvisualsigns": "true", "arrfarezone": "1", "zdaid": "42579", "arrgeopoint": {"lon": 2.356051741401586, "lat": 48.87244691758188}},{"arrid": "22164", "arrversion": "1026428-44962", "arrcreated": "2014-12-29T00:00:00+01:00", "arrchanged": "2021-05-04T17:56:37+02:00", "arrname": "Trocad\u00e9ro", "arrtype": "metro", "arrxepsg2154": 647738, "arryepsg2154": 6862839, "arrtown": "Paris 16e", "arrpostalregion": "75116", "arraccessibility": "false", "arraudiblesignals": "true", "arrvisualsigns": "true", "arrfarezone": "1", "zdaid": "44962", "arrgeopoint": {"lon": 2.2876253778535185, "lat": 48.86346147370082}},{"arrid": "22144", "arrversion": "1025184-1347976", "arrcreated": "2014-12-29T00:00:00+01:00", "arrchanged": "2021-05-04T17:56:37+02:00", "arrname": "Mouton-Duvernet", "arrtype": "metro", "arrxepsg2154": 650801, "arryepsg2154": 6859245, "arrtown": "Paris 14e", "arrpostalregion": "75114", "arraccessibility": "false", "arraudiblesignals": "true", "arrvisualsigns": "true", "arrfarezone": "1", "zdaid": "44183", "arrgeopoint": {"lon": 2.3297903478227395, "lat": 48.83138200907988}},{"arrid": "22145", "arrversion": "1021281-58716", "arrcreated": "2014-12-29T00:00:00+01:00", "arrchanged": "2021-05-04T17:56:37+02:00", "arrname": "Od\u00e9on", "arrtype": "metro", "arrxepsg2154": 651532, "arryepsg2154": 6861543, "arrtown": "Paris 6e", "arrpostalregion": "75106", "arraccessibility": "false", "arraudiblesignals": "true", "arrvisualsigns": "true", "arrfarezone": "1", "zdaid": "58716", "arrgeopoint": {"lon": 2.3394860203178958, "lat": 48.85210334036726}},{"arrid": "22141", "arrversion": "1022833-44515", "arrcreated": "2014-12-29T00:00:00+01:00", "arrchanged": "2021-05-04T17:56:37+02:00", "arrname": "Porte de Clignancourt", "arrtype": "metro", "arrxepsg2154": 651960, "arryepsg2154": 6866594, "arrtown": "Paris 18e", "arrpostalregion": "75118", "arraccessibility": "false", "arraudiblesignals": "true", "arrvisualsigns": "true", "arrfarezone": "1", "zdaid": "44515", "arrgeopoint": {"lon": 2.3447472731828842, "lat": 48.89755778140513}},{"arrid": "22367", "arrversion": "1021689-1187182", "arrcreated": "2014-12-29T00:00:00+01:00", "arrchanged": "2021-05-04T17:56:37+02:00", "arrname": "Ch\u00e2teau Landon", "arrtype": "metro", "arrxepsg2154": 653209, "arryepsg2154": 6864458, "arrtown": "Paris 10e", "arrpostalregion": "75110", "arraccessibility": "false", "arraudiblesignals": "true", "arrvisualsigns": "true", "arrfarezone": "1", "zdaid": "479053", "arrgeopoint": {"lon": 2.3620179355106075, "lat": 48.878441455718786}},{"arrid": "22370", "arrversion": "1026388-917052", "arrcreated": "2014-12-29T00:00:00+01:00", "arrchanged": "2021-05-04T17:56:37+02:00", "arrname": "Tolbiac", "arrtype": "metro", "arrxepsg2154": 652817, "arryepsg2154": 6858645, "arrtown": "Paris 13e", "arrpostalregion": "75113", "arraccessibility": "false", "arraudiblesignals": "true", "arrvisualsigns": "true", "arrfarezone": "1", "zdaid": "43411", "arrgeopoint": {"lon": 2.3573184392131914, "lat": 48.826136861739975}},{"arrid": "22371", "arrversion": "1026018-44643", "arrcreated": "2014-12-29T00:00:00+01:00", "arrchanged": "2021-05-04T17:56:37+02:00", "arrname": "Riquet", "arrtype": "metro", "arrxepsg2154": 654079, "arryepsg2154": 6865526, "arrtown": "Paris 19e", "arrpostalregion": "75119", "arraccessibility": "false", "arraudiblesignals": "true", "arrvisualsigns": "true", "arrfarezone": "1", "zdaid": "44643", "arrgeopoint": {"lon": 2.3737641527012556, "lat": 48.88810829451999}},{"arrid": "22372", "arrversion": "1021623-661051", "arrcreated": "2014-12-29T00:00:00+01:00", "arrchanged": "2021-05-04T17:56:37+02:00", "arrname": "Porte d'Ivry", "arrtype": "metro", "arrxepsg2154": 653708, "arryepsg2154": 6858121, "arrtown": "Paris 13e", "arrpostalregion": "75113", "arraccessibility": "false", "arraudiblesignals": "true", "arrvisualsigns": "true", "arrfarezone": "1", "zdaid": "44507", "arrgeopoint": {"lon": 2.3695112543194923, "lat": 48.821489035549085}},{"arrid": "22385", "arrversion": "1025019-1556080", "arrcreated": "2014-12-29T00:00:00+01:00", "arrchanged": "2021-05-04T17:56:37+02:00", "arrname": "Maison Blanche", "arrtype": "metro", "arrxepsg2154": 652903, "arryepsg2154": 6858203, "arrtown": "Paris 13e", "arrpostalregion": "75113", "arraccessibility": "false", "arraudiblesignals": "true", "arrvisualsigns": "true", "arrfarezone": "1", "zdaid": "44057", "arrgeopoint": {"lon": 2.3585387043161337, "lat": 48.82216816830109}},{"arrid": "463079", "arrversion": "1022419-1641337", "arrcreated": "2019-01-28T00:00:00+01:00", "arrchanged": "2021-05-04T17:56:37+02:00", "arrname": "Ch\u00e2telet", "arrtype": "metro", "arrxepsg2154": 652144, "arryepsg2154": 6862159, "arrtown": "Paris 1er", "arrpostalregion": "75101", "arraccessibility": "false", "arraudiblesignals": "true", "arrvisualsigns": "true", "arrfarezone": "1", "zdaid": "42587", "arrgeopoint": {"lon": 2.347759259772123, "lat": 48.85768873956353}},